city,city_ascii,lat,lng,country,iso2,iso3,id
Tokyo,Tokyo,35.6897,139.6922,Japan,JP,JPN,1392685764
Jakarta,Jakarta,-6.175,106.8275,Indonesia,ID,IDN,1360771077
Manila,Manila,14.5958,120.9772,Philippines,PH,PHL,1608618140
São Paulo,Sao Paulo,-23.55,-46.6333,Brazil,BR,BRA,1076532519
Seoul,Seoul,37.56,126.99,South Korea,KR,KOR,1410836482
Mexico City,Mexico City,19.4333,-99.1333,Mexico,MX,MEX,1484247881
Cairo,Cairo,30.0444,31.2358,Egypt,EG,EGY,1818253931
New York,New York,40.6943,-73.9249,United States,US,USA,1840034016
Dhaka,Dhaka,23.7639,90.3889,Bangladesh,BD,BGD,1050529279
Bangkok,Bangkok,13.7525,100.4942,Thailand,TH,THA,1764068610
Moscow,Moscow,55.7558,37.6172,Russia,RU,RUS,1643318494
Buenos Aires,Buenos Aires,-34.6033,-58.3817,Argentina,AR,ARG,1032717330
Lagos,Lagos,6.455,3.3841,Nigeria,NG,NGA,1566593751
Istanbul,Istanbul,41.0136,28.955,Turkey,TR,TUR,1792756324
Karachi,Karachi,24.86,67.01,Pakistan,PK,PAK,1586129469
Ho Chi Minh City,Ho Chi Minh City,10.7756,106.7019,Vietnam,VN,VNM,1704774326
Ōsaka,Osaka,34.6939,135.5022,Japan,JP,JPN,1392419823
Tehran,Tehran,35.6892,51.3889,Iran,IR,IRN,1364305026
Kinshasa,Kinshasa,-4.3219,15.3119,Congo (Kinshasa),CD,COD,1180000363
Rio de Janeiro,Rio de Janeiro,-22.9111,-43.2056,Brazil,BR,BRA,1076887657
Lahore,Lahore,31.5497,74.3436,Pakistan,PK,PAK,1586801463
Los Angeles,Los Angeles,34.1141,-118.4068,United States,US,USA,1840020491
London,London,51.5072,-0.1275,United Kingdom,GB,GBR,1826645935
Paris,Paris,48.8567,2.3522,France,FR,FRA,1250015082
Lima,Lima,-12.06,-77.0375,Peru,PE,PER,1604728603
Nagoya,Nagoya,35.1833,136.9,Japan,JP,JPN,1392407472
Luanda,Luanda,-8.8383,13.2344,Angola,AO,AGO,1024949724
Kuala Lumpur,Kuala Lumpur,3.1478,101.6953,Malaysia,MY,MYS,1458988644
Johannesburg,Johannesburg,-26.2044,28.0456,South Africa,ZA,ZAF,1710550792
Chicago,Chicago,41.8375,-87.6866,United States,US,USA,1840000494
Hanoi,Hanoi,21,105.85,Vietnam,VN,VNM,1704413791
Bogotá,Bogota,4.7111,-74.0722,Colombia,CO,COL,1170483426
Dar es Salaam,Dar es Salaam,-6.8161,39.2803,Tanzania,TZ,TZA,1834843853
Khartoum,Khartoum,15.6,32.5,Sudan,SD,SDN,1729268475
Hong Kong,Hong Kong,22.3,114.2,Hong Kong,HK,HKG,1344982653
Riyadh,Riyadh,24.6333,46.7167,Saudi Arabia,SA,SAU,1682999334
Santiago,Santiago,-33.4372,-70.6506,Chile,CL,CHL,1152554349
Chattogram,Chattogram,22.335,91.8325,Bangladesh,BD,BGD,1050830722
Surabaya,Surabaya,-7.2458,112.7378,Indonesia,ID,IDN,1360484663
Madrid,Madrid,40.4169,-3.7033,Spain,ES,ESP,1724616994
Baghdad,Baghdad,33.3153,44.3661,Iraq,IQ,IRQ,1368596238
Miami,Miami,25.784,-80.2101,United States,US,USA,1840015149
Singapore,Singapore,1.3,103.8,Singapore,SG,SGP,1702341327
Houston,Houston,29.786,-95.3885,United States,US,USA,1840020925
Dallas,Dallas,32.7935,-96.7667,United States,US,USA,1840019440
Douala,Douala,4.05,9.7,Cameroon,CM,CMR,1120494607
Philadelphia,Philadelphia,40.0077,-75.1339,United States,US,USA,1840000673
Toronto,Toronto,43.7417,-79.3733,Canada,CA,CAN,1124279679
Giza,Giza,29.987,31.2118,Egypt,EG,EGY,1818925479
Nairobi,Nairobi,-1.2864,36.8172,Kenya,KE,KEN,1404000661
Guadalajara,Guadalajara,20.6767,-103.3475,Mexico,MX,MEX,1484950208
Ankara,Ankara,39.93,32.85,Turkey,TR,TUR,1792572891
Saint Petersburg,Saint Petersburg,59.9375,30.3086,Russia,RU,RUS,1643616350
Monterrey,Monterrey,25.6667,-100.3,Mexico,MX,MEX,1484559591
Belo Horizonte,Belo Horizonte,-19.9167,-43.9333,Brazil,BR,BRA,1076967355
Rangoon,Rangoon,16.795,96.16,Burma,MM,MMR,1104616656
Atlanta,Atlanta,33.7628,-84.422,United States,US,USA,1840013660
Washington,Washington,38.9047,-77.0163,United States,US,USA,1840006060
Melbourne,Melbourne,-37.8142,144.9631,Australia,AU,AUS,1036533631
Abidjan,Abidjan,5.3167,-4.0333,Côte d’Ivoire,CI,CIV,1384207980
Berlin,Berlin,52.52,13.405,Germany,DE,DEU,1276451290
Alexandria,Alexandria,31.1975,29.8925,Egypt,EG,EGY,1818695837
Sydney,Sydney,-33.8678,151.21,Australia,AU,AUS,1036074917
Barcelona,Barcelona,41.3828,2.1769,Spain,ES,ESP,1724594040
Cape Town,Cape Town,-33.9253,18.4239,South Africa,ZA,ZAF,1710680650
Jeddah,Jeddah,21.5433,39.1728,Saudi Arabia,SA,SAU,1682926944
Boston,Boston,42.3188,-71.0852,United States,US,USA,1840000455
İzmir,Izmir,38.42,27.14,Turkey,TR,TUR,1792725579
Kabul,Kabul,34.5253,69.1783,Afghanistan,AF,AFG,1004993580
Bamako,Bamako,12.6392,-8.0028,Mali,ML,MLI,1466965925
Fortaleza,Fortaleza,-3.7275,-38.5275,Brazil,BR,BRA,1076567885
Phoenix,Phoenix,33.5722,-112.0892,United States,US,USA,1840020568
Amman,Amman,31.9497,35.9328,Jordan,JO,JOR,1400522593
Abuja,Abuja,9.0667,7.4833,Nigeria,NG,NGA,1566342270
Yokohama,Yokohama,35.4442,139.6381,Japan,JP,JPN,1392118339
Detroit,Detroit,42.3834,-83.1024,United States,US,USA,1840003971
Montréal,Montreal,45.5089,-73.5617,Canada,CA,CAN,1124586170
Medan,Medan,3.5894,98.6739,Indonesia,ID,IDN,1360543171
Seattle,Seattle,47.6211,-122.3244,United States,US,USA,1840021117
Ibadan,Ibadan,7.3964,3.9167,Nigeria,NG,NGA,1566366407
Casablanca,Casablanca,33.5333,-7.5833,Morocco,MA,MAR,1504175315
Kumasi,Kumasi,6.7,-1.625,Ghana,GH,GHA,1288181103
Busan,Busan,35.18,129.075,South Korea,KR,KOR,1410601465
Algiers,Algiers,36.7539,3.0589,Algeria,DZ,DZA,1012973369
Mashhad,Mashhad,36.3264,59.5433,Iran,IR,IRN,1364123206
San Francisco,San Francisco,37.7558,-122.4449,United States,US,USA,1840021543
Boankra,Boankra,6.6944,-1.4028,Ghana,GH,GHA,1288164978
Dubai,Dubai,25.2631,55.2972,United Arab Emirates,AE,ARE,1784736618
Kotla Qasim Khan,Kotla Qasim Khan,32.5833,73.75,Pakistan,PK,PAK,1586216308
Faisalabad,Faisalabad,31.4167,73.0911,Pakistan,PK,PAK,1586323916
Santa Cruz de la Sierra,Santa Cruz de la Sierra,-17.7892,-63.1975,Bolivia,BO,BOL,1068005036
Athens,Athens,37.9842,23.7281,Greece,GR,GRC,1300715560
San Diego,San Diego,32.8313,-117.1222,United States,US,USA,1840021990
Addis Ababa,Addis Ababa,9.03,38.74,Ethiopia,ET,ETH,1231824991
Taichung,Taichung,24.1439,120.6794,Taiwan,TW,TWN,1158689622
Guatemala City,Guatemala City,14.6133,-90.5353,Guatemala,GT,GTM,1320197916
Kuwait City,Kuwait City,29.3697,47.9783,Kuwait,KW,KWT,1414102075
Budapest,Budapest,47.4925,19.0514,Hungary,HU,HUN,1348611435
Quezon City,Quezon City,14.65,121.0475,Philippines,PH,PHL,1608974097
Sanaa,Sanaa,15.3483,44.2064,Yemen,YE,YEM,1887750814
Tashkent,Tashkent,41.3111,69.2797,Uzbekistan,UZ,UZB,1860331871
Kyiv,Kyiv,50.45,30.5233,Ukraine,UA,UKR,1804382913
Incheon,Incheon,37.4833,126.6333,South Korea,KR,KOR,1410160313
Birmingham,Birmingham,52.48,-1.9025,United Kingdom,GB,GBR,1826423213
Bursa,Bursa,40.1833,29.05,Turkey,TR,TUR,1792903330
Minneapolis,Minneapolis,44.9635,-93.2678,United States,US,USA,1840007830
Mbuji-Mayi,Mbuji-Mayi,-6.15,23.6,Congo (Kinshasa),CD,COD,1180399586
La Paz,La Paz,-16.4958,-68.1333,Bolivia,BO,BOL,1068000064
Tampa,Tampa,27.9945,-82.4447,United States,US,USA,1840015982
Brasília,Brasilia,-15.7939,-47.8828,Brazil,BR,BRA,1076144436
Omdurman,Omdurman,15.65,32.4833,Sudan,SD,SDN,1729912179
Malang,Malang,-7.98,112.62,Indonesia,ID,IDN,1360141408
Stuttgart,Stuttgart,48.7775,9.18,Germany,DE,DEU,1276171358
Rome,Rome,41.8933,12.4828,Italy,IT,ITA,1380382862
Brooklyn,Brooklyn,40.6501,-73.9496,United States,US,USA,1840034030
Kaohsiung,Kaohsiung,22.615,120.2975,Taiwan,TW,TWN,1158331334
Denver,Denver,39.762,-104.8758,United States,US,USA,1840018789
Gāzipura,Gazipura,23.9889,90.375,Bangladesh,BD,BGD,1050449249
Guayaquil,Guayaquil,-2.19,-79.8875,Ecuador,EC,ECU,1218802178
Mogadishu,Mogadishu,2.0392,45.3419,Somalia,SO,SOM,1706893395
Munich,Munich,48.1375,11.575,Germany,DE,DEU,1276692352
Taipei,Taipei,25.0375,121.5625,Taiwan,TW,TWN,1158881289
Bekasi,Bekasi,-6.2349,106.9923,Indonesia,ID,IDN,1360006015
Damascus,Damascus,33.5131,36.2919,Syria,SY,SYR,1760685964
Medellín,Medellin,6.2308,-75.5906,Colombia,CO,COL,1170680389
Khowrhesht,Khowrhesht,36.205,49.6872,Iran,IR,IRN,1364002070
Hamburg,Hamburg,53.55,10,Germany,DE,DEU,1276041799
Cali,Cali,3.4206,-76.5222,Colombia,CO,COL,1170417589
Lusaka,Lusaka,-15.4167,28.2833,Zambia,ZM,ZMB,1894157390
Ouagadougou,Ouagadougou,12.3686,-1.5275,Burkina Faso,BF,BFA,1854029208
Yaoundé,Yaounde,3.8667,11.5167,Cameroon,CM,CMR,1120298240
Mecca,Mecca,21.4225,39.8233,Saudi Arabia,SA,SAU,1682169241
Vancouver,Vancouver,49.25,-123.1,Canada,CA,CAN,1124825478
Beirut,Beirut,33.8983,35.5057,Lebanon,LB,LBN,1422847713
Salvador,Salvador,-12.9747,-38.4767,Brazil,BR,BRA,1076923789
Bucharest,Bucharest,44.4325,26.1039,Romania,RO,ROU,1642414442
Queens,Queens,40.7498,-73.7976,United States,US,USA,1840034002
Accra,Accra,5.55,-0.2,Ghana,GH,GHA,1288299415
Bekasi Kota,Bekasi Kota,-6.2333,107,Indonesia,ID,IDN,1360673840
Daegu,Daegu,35.8717,128.6017,South Korea,KR,KOR,1410095252
Brisbane,Brisbane,-27.4678,153.0281,Australia,AU,AUS,1036192929
Riverside,Riverside,33.9381,-117.3949,United States,US,USA,1840020551
Colombo,Colombo,6.9344,79.8428,Sri Lanka,LK,LKA,1144251314
Baku,Baku,40.3953,49.8822,Azerbaijan,AZ,AZE,1031946365
Antananarivo,Antananarivo,-18.91,47.525,Madagascar,MG,MDG,1450978461
Fukuoka,Fukuoka,33.59,130.4017,Japan,JP,JPN,1392576294
Las Vegas,Las Vegas,36.2333,-115.2654,United States,US,USA,1840020364
Caracas,Caracas,10.4806,-66.9036,Venezuela,VE,VEN,1862748204
Tangerang,Tangerang,-6.1703,106.6403,Indonesia,ID,IDN,1360002844
Konya,Konya,37.8667,32.4833,Turkey,TR,TUR,1792014004
Vienna,Vienna,48.2083,16.3725,Austria,AT,AUT,1040261752
Eşfahān,Esfahan,32.6447,51.6675,Iran,IR,IRN,1364023865
Baltimore,Baltimore,39.3051,-76.6144,United States,US,USA,1840001592
Awka,Awka,6.2069,7.0678,Nigeria,NG,NGA,1566560581
Harare,Harare,-17.8292,31.0522,Zimbabwe,ZW,ZWE,1716196799
Perth,Perth,-31.9559,115.8606,Australia,AU,AUS,1036178956
St. Louis,St. Louis,38.6359,-90.2451,United States,US,USA,1840001651
Phnom Penh,Phnom Penh,11.5694,104.9211,Cambodia,KH,KHM,1116260534
Depok,Depok,-6.394,106.8225,Indonesia,ID,IDN,1360962899
Stockholm,Stockholm,59.3294,18.0686,Sweden,SE,SWE,1752425602
Kowloon,Kowloon,22.3167,114.1833,Hong Kong,HK,HKG,1344538284
Córdoba,Cordoba,-31.4167,-64.1833,Argentina,AR,ARG,1032803249
Haiphong,Haiphong,20.8651,106.6838,Vietnam,VN,VNM,1704000623
Zamboanga City,Zamboanga City,6.9042,122.0761,Philippines,PH,PHL,1608189351
Rawalpindi,Rawalpindi,33.6,73.0333,Pakistan,PK,PAK,1586344001
Portland,Portland,45.5371,-122.65,United States,US,USA,1840019941
Kano,Kano,12,8.5167,Nigeria,NG,NGA,1566422868
Havana,Havana,23.1367,-82.3589,Cuba,CU,CUB,1192752771
Manaus,Manaus,-3.1189,-60.0217,Brazil,BR,BRA,1076607274
San Antonio,San Antonio,29.4632,-98.5238,United States,US,USA,1840022220
Gujranwala,Gujranwala,32.1567,74.19,Pakistan,PK,PAK,1586400472
Aleppo,Aleppo,36.2,37.16,Syria,SY,SYR,1760366651
Tijuana,Tijuana,32.525,-117.0333,Mexico,MX,MEX,1484708778
Bamenda,Bamenda,5.9614,10.1517,Cameroon,CM,CMR,1120909610
Minsk,Minsk,53.9,27.5667,Belarus,BY,BLR,1112348503
Karaj,Karaj,35.8272,50.9489,Iran,IR,IRN,1364258511
Kananga,Kananga,-5.897,22.4488,Congo (Kinshasa),CD,COD,1180172460
Peshawar,Peshawar,34.0144,71.5675,Pakistan,PK,PAK,1586851102
Sapporo,Sapporo,43.0619,141.3544,Japan,JP,JPN,1392000195
Sacramento,Sacramento,38.5677,-121.4685,United States,US,USA,1840021491
Tilburg,Tilburg,51.55,5.0833,Netherlands,NL,NLD,1528817379
Ecatepec,Ecatepec,19.6097,-99.06,Mexico,MX,MEX,1484003694
Almaty,Almaty,43.24,76.915,Kazakhstan,KZ,KAZ,1398351701
Austin,Austin,30.3005,-97.7522,United States,US,USA,1840019590
Santos,Santos,-23.9369,-46.325,Brazil,BR,BRA,1076033299
Blantyre,Blantyre,-15.7861,35.0058,Malawi,MW,MWI,1454145012
Orlando,Orlando,28.4773,-81.337,United States,US,USA,1840015099
Tainan,Tainan,22.9833,120.1833,Taiwan,TW,TWN,1158061376
Multan,Multan,30.1978,71.4697,Pakistan,PK,PAK,1586256291
Santa Cruz,Santa Cruz,-17.8,-63.1833,Bolivia,BO,BOL,1068129363
Port Harcourt,Port Harcourt,4.8242,7.0336,Nigeria,NG,NGA,1566070649
Warsaw,Warsaw,52.23,21.0111,Poland,PL,POL,1616024847
San Juan,San Juan,18.3985,-66.061,Puerto Rico,PR,PRI,1630035577
Mersin,Mersin,36.8,34.6333,Turkey,TR,TUR,1792520282
Mosul,Mosul,36.34,43.13,Iraq,IQ,IRQ,1368194914
Lubumbashi,Lubumbashi,-11.6647,27.4794,Congo (Kinshasa),CD,COD,1180506234
Davao,Davao,7.07,125.6,Philippines,PH,PHL,1608906877
Curitiba,Curitiba,-25.4297,-49.2711,Brazil,BR,BRA,1076701712
San Jose,San Jose,37.3012,-121.848,United States,US,USA,1840021570
Adana,Adana,37,35.3213,Turkey,TR,TUR,1792783772
Quito,Quito,-0.22,-78.5125,Ecuador,EC,ECU,1218441993
Pittsburgh,Pittsburgh,40.4397,-79.9763,United States,US,USA,1840001254
Brazzaville,Brazzaville,-4.2694,15.2711,Congo (Brazzaville),CG,COG,1178340306
Hyderabad City,Hyderabad City,25.3792,68.3683,Pakistan,PK,PAK,1586185019
Diyarbakır,Diyarbakir,37.91,40.24,Turkey,TR,TUR,1792536241
Indianapolis,Indianapolis,39.7771,-86.1458,United States,US,USA,1840030084
Masqaţ,Masqat,23.5889,58.4083,Oman,OM,OMN,1512001294
Montevideo,Montevideo,-34.8836,-56.1819,Uruguay,UY,URY,1858107000
Manhattan,Manhattan,40.7834,-73.9662,United States,US,USA,1840034000
Cincinnati,Cincinnati,39.1413,-84.506,United States,US,USA,1840003814
Kansas City,Kansas City,39.1238,-94.5541,United States,US,USA,1840008535
Tegucigalpa,Tegucigalpa,14.1058,-87.2047,Honduras,HN,HND,1340344059
Kampala,Kampala,0.3136,32.5811,Uganda,UG,UGA,1800406299
Cleveland,Cleveland,41.4764,-81.6805,United States,US,USA,1840000596
Conakry,Conakry,9.5092,-13.7122,Guinea,GN,GIN,1324568159
Caloocan City,Caloocan City,14.65,120.97,Philippines,PH,PHL,1608897690
Masvingo,Masvingo,-20.0744,30.8328,Zimbabwe,ZW,ZWE,1716049475
Zhongli,Zhongli,24.965,121.2168,Taiwan,TW,TWN,1158025380
Novosibirsk,Novosibirsk,55.05,82.95,Russia,RU,RUS,1643399240
Semarang,Semarang,-6.99,110.4225,Indonesia,ID,IDN,1360745537
Rājshāhi,Rajshahi,24.3667,88.6,Bangladesh,BD,BGD,1050547831
Balandougou,Balandougou,13.3558,-9.5517,Mali,ML,MLI,1466367944
Valencia,Valencia,39.47,-0.3764,Spain,ES,ESP,1724981666
León de los Aldama,Leon de los Aldama,21.1167,-101.6833,Mexico,MX,MEX,1484811199
Puebla,Puebla,19.0333,-98.1833,Mexico,MX,MEX,1484416394
Columbus,Columbus,39.9862,-82.9855,United States,US,USA,1840003760
Yopougon,Yopougon,5.3167,-4.0667,Côte d’Ivoire,CI,CIV,1384759584
Shīrāz,Shiraz,29.61,52.5425,Iran,IR,IRN,1364432238
Tabrīz,Tabriz,38.0814,46.3006,Iran,IR,IRN,1364141756
Maracaibo,Maracaibo,10.6333,-71.6333,Venezuela,VE,VEN,1862072711
Sofia,Sofia,42.7,23.33,Bulgaria,BG,BGR,1100762037
San José,San Jose,9.9325,-84.08,Costa Rica,CR,CRI,1188749877
Palembang,Palembang,-2.9861,104.7556,Indonesia,ID,IDN,1360902897
Kawasaki,Kawasaki,35.5167,139.7,Japan,JP,JPN,1392003356
Kōbe,Kobe,34.69,135.1956,Japan,JP,JPN,1392978082
Kigali,Kigali,-1.9439,30.0594,Rwanda,RW,RWA,1646923541
Panama City,Panama City,8.9833,-79.5167,Panama,PA,PAN,1591672475
Nneyi-Umuleri,Nneyi-Umuleri,6.3333,6.8333,Nigeria,NG,NGA,1566349733
Gwangju,Gwangju,35.1653,126.8486,South Korea,KR,KOR,1410000087
Katako-Kombe,Katako-Kombe,-3.4,24.42,Congo (Kinshasa),CD,COD,1180033898
Recife,Recife,-8.05,-34.9,Brazil,BR,BRA,1076137337
Valencia,Valencia,10.1833,-68,Venezuela,VE,VEN,1862309871
Onitsha,Onitsha,6.1667,6.7833,Nigeria,NG,NGA,1566593483
Abu Dhabi,Abu Dhabi,24.4667,54.3667,United Arab Emirates,AE,ARE,1784176710
Zapopan,Zapopan,20.7167,-103.4,Mexico,MX,MEX,1484198680
Daejeon,Daejeon,36.35,127.385,South Korea,KR,KOR,1410993875
Bronx,Bronx,40.8501,-73.8662,United States,US,USA,1840033999
Yekaterinburg,Yekaterinburg,56.8356,60.6128,Russia,RU,RUS,1643582706
Kyōto,Kyoto,35.0117,135.7683,Japan,JP,JPN,1392622735
Amsterdam,Amsterdam,52.3728,4.8936,Netherlands,NL,NLD,1528355309
Kismaayo,Kismaayo,-0.3581,42.5453,Somalia,SO,SOM,1706091701
Virginia Beach,Virginia Beach,36.7335,-76.0435,United States,US,USA,1840003871
Dakar,Dakar,14.6928,-17.4467,Senegal,SN,SEN,1686604760
Goiânia,Goiania,-16.6667,-49.25,Brazil,BR,BRA,1076034054
Charlotte,Charlotte,35.2083,-80.8303,United States,US,USA,1840014557
Muscat,Muscat,23.6139,58.5922,Oman,OM,OMN,1512035506
Kharkiv,Kharkiv,49.9925,36.2311,Ukraine,UA,UKR,1804588111
Medina,Medina,24.47,39.61,Saudi Arabia,SA,SAU,1682345785
Khulna,Khulna,22.8167,89.55,Bangladesh,BD,BGD,1050667339
Ulaanbaatar,Ulaanbaatar,47.9203,106.9172,Mongolia,MN,MNG,1496024767
Kayseri,Kayseri,38.7225,35.4875,Turkey,TR,TUR,1792945815
Tel Aviv-Yafo,Tel Aviv-Yafo,32.08,34.78,Israel,IL,ISR,1376401542
Sangereng,Sangereng,-6.2889,106.7181,Indonesia,ID,IDN,1360029147
Samsun,Samsun,41.2903,36.3336,Turkey,TR,TUR,1792169057
Copenhagen,Copenhagen,55.6761,12.5683,Denmark,DK,DNK,1208763942
Helsinki,Helsinki,60.1708,24.9375,Finland,FI,FIN,1246177997
Prague,Prague,50.0875,14.4214,Czechia,CZ,CZE,1203744823
Milan,Milan,45.4669,9.19,Italy,IT,ITA,1380724377
Auckland,Auckland,-36.8406,174.74,New Zealand,NZ,NZL,1554435911
Santiago,Santiago,19.4572,-70.6889,Dominican Republic,DO,DOM,1214985348
Makassar,Makassar,-5.1619,119.4362,Indonesia,ID,IDN,1360051337
Porto Alegre,Porto Alegre,-30.0331,-51.23,Brazil,BR,BRA,1076658221
Barranquilla,Barranquilla,10.9833,-74.8019,Colombia,CO,COL,1170179113
Al Başrah,Al Basrah,30.515,47.81,Iraq,IQ,IRQ,1368714645
Saitama,Saitama,35.8614,139.6456,Japan,JP,JPN,1392017719
Guarulhos,Guarulhos,-23.4628,-46.5328,Brazil,BR,BRA,1076730420
Juárez,Juarez,31.745,-106.485,Mexico,MX,MEX,1484840083
Mandalay,Mandalay,21.9831,96.0844,Burma,MM,MMR,1104468217
Calgary,Calgary,51.05,-114.0667,Canada,CA,CAN,1124690423
Belém,Belem,-1.4558,-48.5039,Brazil,BR,BRA,1076646823
Adelaide,Adelaide,-34.9275,138.6,Australia,AU,AUS,1036538171
Milwaukee,Milwaukee,43.0642,-87.9675,United States,US,USA,1840003046
Providence,Providence,41.823,-71.4187,United States,US,USA,1840003289
Jacksonville,Jacksonville,30.3322,-81.6749,United States,US,USA,1840015031
Cacuaco,Cacuaco,-8.8053,13.2444,Angola,AO,AGO,1024559448
Porto,Porto,41.1621,-8.622,Portugal,PT,PRT,1620356810
Rosario,Rosario,-32.9575,-60.6394,Argentina,AR,ARG,1032770677
Canagatan,Canagatan,18,121.8,Philippines,PH,PHL,1608697675
Soweto,Soweto,-26.2678,27.8585,South Africa,ZA,ZAF,1710627007
Bagam,Bagam,1.13,104.0531,Indonesia,ID,IDN,1360405604
Dublin,Dublin,53.35,-6.2603,Ireland,IE,IRL,1372595407
Kazan,Kazan,55.7964,49.1089,Russia,RU,RUS,1643101260
Balıkesir,Balikesir,39.6333,27.8833,Turkey,TR,TUR,1792020804
Comayagüela,Comayaguela,14.098,-87.21,Honduras,HN,HND,1340762485
Sharjah,Sharjah,25.3575,55.3908,United Arab Emirates,AE,ARE,1784152993
Nizhniy Novgorod,Nizhniy Novgorod,56.3269,44.0075,Russia,RU,RUS,1643012126
Sumedang,Sumedang,-6.84,107.9208,Indonesia,ID,IDN,1360564479
Cần Thơ,Can Tho,10.0333,105.7833,Vietnam,VN,VNM,1704783472
Brussels,Brussels,50.8467,4.3525,Belgium,BE,BEL,1056469830
Suwon,Suwon,37.2667,127.0167,South Korea,KR,KOR,1410679777
Campinas,Campinas,-22.9058,-47.0608,Brazil,BR,BRA,1076145766
Mombasa,Mombasa,-4.05,39.6667,Kenya,KE,KEN,1404512373
Qom,Qom,34.64,50.8764,Iran,IR,IRN,1364701633
Hargeysa,Hargeysa,9.5631,44.0675,Somalia,SO,SOM,1706832021
Baidoa,Baidoa,3.1167,43.65,Somalia,SO,SOM,1706563100
Hiroshima,Hiroshima,34.3914,132.4519,Japan,JP,JPN,1392373695
Chiang Mai,Chiang Mai,18.7953,98.9986,Thailand,TH,THA,1764662886
Belgrade,Belgrade,44.82,20.46,Serbia,RS,SRB,1688374696
Maiduguri,Maiduguri,11.8333,13.15,Nigeria,NG,NGA,1566540296
Chelyabinsk,Chelyabinsk,55.1547,61.3758,Russia,RU,RUS,1643224011
Batam Centre,Batam Centre,1.13,104.0531,Indonesia,ID,IDN,1360024213
Mbandaka,Mbandaka,0.0478,18.2558,Congo (Kinshasa),CD,COD,1180720887
Doha,Doha,25.2867,51.5333,Qatar,QA,QAT,1634459660
Ahvāz,Ahvaz,31.3047,48.6783,Iran,IR,IRN,1364350188
Shymkent,Shymkent,42.3167,69.5958,Kazakhstan,KZ,KAZ,1398791401
Tripoli,Tripoli,32.8872,13.1914,Libya,LY,LBY,1434201852
Nashville,Nashville,36.1715,-86.7842,United States,US,USA,1840036155
Cilacap,Cilacap,-7.7167,109.017,Indonesia,ID,IDN,1360503809
Salt Lake City,Salt Lake City,40.7776,-111.9311,United States,US,USA,1840021383
Omsk,Omsk,54.9833,73.3667,Russia,RU,RUS,1643360863
Pikine,Pikine,14.75,-17.4,Senegal,SN,SEN,1686165071
Samara,Samara,53.2028,50.1408,Russia,RU,RUS,1643205757
Bandar Lampung,Bandar Lampung,-5.45,105.2667,Indonesia,ID,IDN,1360243491
Raleigh,Raleigh,35.8324,-78.6429,United States,US,USA,1840014497
Nay Pyi Taw,Nay Pyi Taw,19.7475,96.115,Burma,MM,MMR,1104838105
Aba,Aba,5.1167,7.3667,Nigeria,NG,NGA,1566262000
Edmonton,Edmonton,53.5344,-113.4903,Canada,CA,CAN,1124290735
Ulsan,Ulsan,35.55,129.3167,South Korea,KR,KOR,1410134602
Benin City,Benin City,6.3333,5.6222,Nigeria,NG,NGA,1566080151
Bujumbura,Bujumbura,-3.3833,29.3667,Burundi,BI,BDI,1108101689
Rostov,Rostov,47.2225,39.71,Russia,RU,RUS,1643013518
Maputo,Maputo,-25.9667,32.5833,Mozambique,MZ,MOZ,1508074843
Bukavu,Bukavu,-2.5,28.8667,Congo (Kinshasa),CD,COD,1180475821
Shagamu,Shagamu,6.8333,3.65,Nigeria,NG,NGA,1566202131
Santo Domingo,Santo Domingo,18.4667,-69.95,Dominican Republic,DO,DOM,1214636202
Bogor,Bogor,-6.5966,106.7972,Indonesia,ID,IDN,1360771925
Bishkek,Bishkek,42.8747,74.6122,Kyrgyzstan,KG,KGZ,1417191971
Tbilisi,Tbilisi,41.7225,44.7925,Georgia,GE,GEO,1268203191
Ufa,Ufa,54.7261,55.9475,Russia,RU,RUS,1643722928
Fès,Fes,34.0433,-5.0033,Morocco,MA,MAR,1504861997
Mwanza,Mwanza,-2.5167,32.9,Tanzania,TZ,TZA,1834011288
Biên Hòa,Bien Hoa,10.95,106.8167,Vietnam,VN,VNM,1704863046
Mexicali,Mexicali,32.6633,-115.4678,Mexico,MX,MEX,1484788702
Sevilla,Sevilla,37.39,-5.99,Spain,ES,ESP,1724991838
Ikare,Ikare,7.5167,5.75,Nigeria,NG,NGA,1566683694
Tamale,Tamale,9.4075,-0.8533,Ghana,GH,GHA,1288890688
N’Djamena,N'Djamena,12.11,15.05,Chad,TD,TCD,1148708596
Ubungo,Ubungo,-6.7889,39.2056,Tanzania,TZ,TZA,1834358621
Cologne,Cologne,50.9364,6.9528,Germany,DE,DEU,1276015998
Krasnoyarsk,Krasnoyarsk,56.0089,92.8719,Russia,RU,RUS,1643544975
Astana,Astana,51.1472,71.4222,Kazakhstan,KZ,KAZ,1398516045
Nezahualcóyotl,Nezahualcoyotl,19.4081,-99.0186,Mexico,MX,MEX,1484074285
Nouakchott,Nouakchott,18.0858,-15.9785,Mauritania,MR,MRT,1478414984
Tongjin,Tongjin,37.2333,127.2,South Korea,KR,KOR,1410160862
Yerevan,Yerevan,40.1814,44.5144,Armenia,AM,ARM,1051074169
Richmond,Richmond,37.5295,-77.4756,United States,US,USA,1840001698
Ciudad Nezahualcóyotl,Ciudad Nezahualcoyotl,19.4006,-99.0148,Mexico,MX,MEX,1484016661
Ottawa,Ottawa,45.4247,-75.695,Canada,CA,CAN,1124399363
Oslo,Oslo,59.9133,10.7389,Norway,NO,NOR,1578324706
Goyang,Goyang,37.65,126.8,South Korea,KR,KOR,1410511255
Sendai,Sendai,38.2682,140.8694,Japan,JP,JPN,1392457903
Barquisimeto,Barquisimeto,10.0636,-69.3347,Venezuela,VE,VEN,1862860739
Voronezh,Voronezh,51.6717,39.2106,Russia,RU,RUS,1643811064
Managua,Managua,12.1364,-86.2514,Nicaragua,NI,NIC,1558296252
Perm,Perm,58,56.3167,Russia,RU,RUS,1643294442
Cazenga,Cazenga,-8.8214,13.2911,Angola,AO,AGO,1024791607
Kisangani,Kisangani,0.5167,25.2,Congo (Kinshasa),CD,COD,1180478201
Memphis,Memphis,35.1087,-89.9663,United States,US,USA,1840015457
São Luís,Sao Luis,-2.5283,-44.3044,Brazil,BR,BRA,1076819308
Matola,Matola,-25.9667,32.4667,Mozambique,MZ,MOZ,1508768577
Ogbomoso,Ogbomoso,8.1333,4.25,Nigeria,NG,NGA,1566373448
Rangapukur,Rangapukur,25.56,89.25,Bangladesh,BD,BGD,1050032005
Ashgabat,Ashgabat,37.9375,58.38,Turkmenistan,TM,TKM,1795049992
Denizli,Denizli,37.7833,29.0964,Turkey,TR,TUR,1792161179
Niamey,Niamey,13.515,2.1175,Niger,NE,NER,1562932886
Shubrā al Khaymah,Shubra al Khaymah,30.1286,31.2422,Egypt,EG,EGY,1818909612
Monrovia,Monrovia,6.3133,-10.8014,Liberia,LR,LBR,1430477826
San Cristóbal,San Cristobal,7.7667,-72.2333,Venezuela,VE,VEN,1862252264
Islamabad,Islamabad,33.6931,73.0639,Pakistan,PK,PAK,1586306717
Thủ Đức,Thu Duc,10.8266,106.7609,Vietnam,VN,VNM,1704361621
Morelia,Morelia,19.7683,-101.1894,Mexico,MX,MEX,1484669072
Odesa,Odesa,46.4775,30.7326,Ukraine,UA,UKR,1804178102
Changwon,Changwon,35.2708,128.6631,South Korea,KR,KOR,1410592618
Arequipa,Arequipa,-16.4,-71.5333,Peru,PE,PER,1604723954
Volgograd,Volgograd,48.7086,44.5147,Russia,RU,RUS,1643577201
Quetta,Quetta,30.1833,67,Pakistan,PK,PAK,1586556108
Quảng Hà,Quang Ha,15.9333,108.2667,Vietnam,VN,VNM,1704966442
Domaa-Ahenkro,Domaa-Ahenkro,7.2833,-2.8833,Ghana,GH,GHA,1288459533
Oklahoma City,Oklahoma City,35.4676,-97.5136,United States,US,USA,1840020428
Bordeaux,Bordeaux,44.84,-0.58,France,FR,FRA,1250449238
Lilongwe,Lilongwe,-13.9833,33.7833,Malawi,MW,MWI,1454688499
Port-au-Prince,Port-au-Prince,18.5333,-72.3333,Haiti,HT,HTI,1332401940
Al Mijlad,Al Mijlad,11.0339,27.74,Sudan,SD,SDN,1729768355
Pekanbaru,Pekanbaru,0.5092,101.4453,Indonesia,ID,IDN,1360422679
Natal,Natal,-6.9838,-60.2699,Brazil,BR,BRA,1076336975
Chiba,Chiba,35.6073,140.1064,Japan,JP,JPN,1392107144
Kirkuk,Kirkuk,35.4667,44.3167,Iraq,IQ,IRQ,1368344172
Hartford,Hartford,41.7661,-72.6834,United States,US,USA,1840004773
Dnipro,Dnipro,48.4675,35.04,Ukraine,UA,UKR,1804152933
Nārāyanganj,Narayanganj,23.62,90.5,Bangladesh,BD,BGD,1050424421
Gqeberha,Gqeberha,-33.9581,25.6,South Africa,ZA,ZAF,1710918997
Málaga,Malaga,36.7194,-4.42,Spain,ES,ESP,1724397372
Marrakech,Marrakech,31.63,-8.0089,Morocco,MA,MAR,1504172585
Cebu City,Cebu City,10.32,123.75,Philippines,PH,PHL,1608136151
Louisville,Louisville,38.1663,-85.6485,United States,US,USA,1840030815
Asmara,Asmara,15.3228,38.925,Eritrea,ER,ERI,1232791236
Maceió,Maceio,-9.6658,-35.735,Brazil,BR,BRA,1076440479
Teresina,Teresina,-5.0949,-42.8042,Brazil,BR,BRA,1076727667
Freetown,Freetown,8.4844,-13.2344,Sierra Leone,SL,SLE,1694085071
Santo Domingo Este,Santo Domingo Este,18.4855,-69.8734,Dominican Republic,DO,DOM,1214664832
Krasnodar,Krasnodar,45.0333,38.9667,Russia,RU,RUS,1643438227
Vientiane,Vientiane,17.98,102.63,Laos,LA,LAO,1418732714
Tangier,Tangier,35.7767,-5.8039,Morocco,MA,MAR,1504861504
Kermānshāh,Kermanshah,34.3325,47.0933,Iran,IR,IRN,1364535690
Kibanseke Première,Kibanseke Premiere,-4.4419,15.395,Congo (Kinshasa),CD,COD,1180763985
Seberang Jaya,Seberang Jaya,5.4083,100.3695,Malaysia,MY,MYS,1458417183
Buffalo,Buffalo,42.9018,-78.8487,United States,US,USA,1840000386
El Alto,El Alto,-16.5047,-68.1633,Bolivia,BO,BOL,1068007058
Çankaya,Cankaya,39.9244,32.8856,Turkey,TR,TUR,1792458894
Hwasu-dong,Hwasu-dong,37.1997,126.8314,South Korea,KR,KOR,1410037247
Setagaya,Setagaya,35.6466,139.6532,Japan,JP,JPN,1392792380
Keçiören,Kecioren,40,32.8667,Turkey,TR,TUR,1792127988
Jerusalem,Jerusalem,31.7789,35.2256,Israel,IL,ISR,1376261644
Khartoum North,Khartoum North,15.6333,32.6333,Sudan,SD,SDN,1729318628
Mushin,Mushin,6.5333,3.35,Nigeria,NG,NGA,1566329100
Trujillo,Trujillo,-8.112,-79.0288,Peru,PE,PER,1604613706
Kitakyūshū,Kitakyushu,33.8833,130.8833,Japan,JP,JPN,1392003140
Aguascalientes,Aguascalientes,21.876,-102.296,Mexico,MX,MEX,1484666646
New Orleans,New Orleans,30.0687,-89.9288,United States,US,USA,1840001839
Fort Worth,Fort Worth,32.7817,-97.3474,United States,US,USA,1840020696
Riga,Riga,56.9489,24.1064,Latvia,LV,LVA,1428586192
Sŏngnam,Songnam,37.4333,127.15,South Korea,KR,KOR,1410622472
Cartagena,Cartagena,10.4,-75.5,Colombia,CO,COL,1170886102
Naples,Naples,40.8333,14.25,Italy,IT,ITA,1380646673
Santiago del Estero,Santiago del Estero,-27.7833,-64.2667,Argentina,AR,ARG,1032492280
Naucalpan de Juárez,Naucalpan de Juarez,19.4753,-99.2378,Mexico,MX,MEX,1484850125
Padang,Padang,-0.95,100.3531,Indonesia,ID,IDN,1360900986
Bridgeport,Bridgeport,41.1918,-73.1954,United States,US,USA,1840004836
Owerri,Owerri,5.485,7.035,Nigeria,NG,NGA,1566679132
Bobo-Dioulasso,Bobo-Dioulasso,11.1833,-4.2833,Burkina Faso,BF,BFA,1854348796
Ad Dammām,Ad Dammam,26.4333,50.1,Saudi Arabia,SA,SAU,1682452296
Donetsk,Donetsk,48.0028,37.8053,Ukraine,UA,UKR,1804963805
Ashmūn,Ashmun,30.2941,31.0342,Egypt,EG,EGY,1818251892
Bunia,Bunia,1.5667,30.25,Congo (Kinshasa),CD,COD,1180006418
Campo Grande,Campo Grande,-20.4839,-54.615,Brazil,BR,BRA,1076660445
São Gonçalo,Sao Goncalo,-22.8269,-43.0539,Brazil,BR,BRA,1076485783
Bucaramanga,Bucaramanga,7.1333,-73,Colombia,CO,COL,1170940590
Mérida,Merida,20.97,-89.62,Mexico,MX,MEX,1484396779
Osmangazi,Osmangazi,40.1983,29.06,Turkey,TR,TUR,1792498117
Esenyurt,Esenyurt,41.0342,28.68,Turkey,TR,TUR,1792759121
Bangui,Bangui,4.3733,18.5628,Central African Republic,CF,CAF,1140080881
Abeokuta,Abeokuta,7.1608,3.3483,Nigeria,NG,NGA,1566979497
Cancún,Cancun,21.1606,-86.8475,Mexico,MX,MEX,1484010310
Antipolo,Antipolo,14.5842,121.1763,Philippines,PH,PHL,1608824345
Taguig City,Taguig City,14.52,121.05,Philippines,PH,PHL,1608766695
Tabūk,Tabuk,28.3972,36.5789,Saudi Arabia,SA,SAU,1682590992
Tucson,Tucson,32.1541,-110.8787,United States,US,USA,1840022101
As Sulaymānīyah,As Sulaymaniyah,35.5572,45.4356,Iraq,IQ,IRQ,1368735317
Chihuahua,Chihuahua,28.6369,-106.0769,Mexico,MX,MEX,1484335603
Klang,Klang,3.0333,101.45,Malaysia,MY,MYS,1458509635
Ar Ramādī,Ar Ramadi,33.4258,43.2992,Iraq,IQ,IRQ,1368838855
Barinas,Barinas,8.6333,-70.2,Venezuela,VE,VEN,1862647790
Marseille,Marseille,43.2964,5.37,France,FR,FRA,1250774071
Eskişehir,Eskisehir,39.7767,30.5206,Turkey,TR,TUR,1792933981
Ipoh,Ipoh,4.5972,101.075,Malaysia,MY,MYS,1458423505
El Paso,El Paso,31.8476,-106.43,United States,US,USA,1840023252
Saltillo,Saltillo,25.4231,-100.9919,Mexico,MX,MEX,1484107245
Dushanbe,Dushanbe,38.5367,68.78,Tajikistan,TJ,TJK,1762930616
Ikeja,Ikeja,6.6,3.35,Nigeria,NG,NGA,1566486388
El Dorado,El Dorado,24.808,-107.397,Mexico,MX,MEX,1484719986
Cochabamba,Cochabamba,-17.3883,-66.1597,Bolivia,BO,BOL,1068793894
Portsmouth,Portsmouth,50.8058,-1.0872,United Kingdom,GB,GBR,1826964096
Tyumen,Tyumen,57.15,65.5333,Russia,RU,RUS,1643040435
Southampton,Southampton,50.9025,-1.4042,United Kingdom,GB,GBR,1826602892
Hermosillo,Hermosillo,29.0989,-110.9542,Mexico,MX,MEX,1484015319
Cheongju,Cheongju,36.6333,127.4833,South Korea,KR,KOR,1410964361
Sale,Sale,34.0333,-6.8,Morocco,MA,MAR,1504989034
Akure,Akure,7.25,5.195,Nigeria,NG,NGA,1566568277
Ilorin,Ilorin,8.5,4.55,Nigeria,NG,NGA,1566480168
Erbil,Erbil,36.1912,44.0092,Iraq,IQ,IRQ,1368578192
Kathmandu,Kathmandu,27.71,85.32,Nepal,NP,NPL,1524589448
Saratov,Saratov,51.5333,46.0167,Russia,RU,RUS,1643556540
Iguaçu,Iguacu,-22.74,-43.47,Brazil,BR,BRA,1076339714
Turin,Turin,45.0792,7.6761,Italy,IT,ITA,1380244627
Pietermaritzburg,Pietermaritzburg,-29.6167,30.3833,South Africa,ZA,ZAF,1710690280
Durban,Durban,-29.8833,31.05,South Africa,ZA,ZAF,1710149138
Denpasar,Denpasar,-8.65,115.2167,Indonesia,ID,IDN,1360848527
João Pessoa,Joao Pessoa,-7.12,-34.88,Brazil,BR,BRA,1076922014
Samarinda,Samarinda,-0.5,117.1378,Indonesia,ID,IDN,1360684979
Sakai,Sakai,34.5733,135.4831,Japan,JP,JPN,1392003291
Omaha,Omaha,41.2627,-96.0529,United States,US,USA,1840009315
São Bernardo do Campo,Sao Bernardo do Campo,-23.7,-46.55,Brazil,BR,BRA,1076793227
Androtsy,Androtsy,-24.1,46.3,Madagascar,MG,MDG,1450017816
Culiacán,Culiacan,24.8069,-107.3939,Mexico,MX,MEX,1484516810
Cúcuta,Cucuta,7.8942,-72.5039,Colombia,CO,COL,1170743755
Kraków,Krakow,50.0614,19.9372,Poland,PL,POL,1616172264
Pasig City,Pasig City,14.5605,121.0765,Philippines,PH,PHL,1608278212
Thessaloníki,Thessaloniki,40.6403,22.9347,Greece,GR,GRC,1300397999
Querétaro,Queretaro,20.5875,-100.3928,Mexico,MX,MEX,1484604775
Palermo,Palermo,2.8917,-75.4375,Colombia,CO,COL,1170614290
McAllen,McAllen,26.2252,-98.2467,United States,US,USA,1840021024
Libreville,Libreville,0.3903,9.4542,Gabon,GA,GAB,1266952885
Seyhan,Seyhan,36.9831,35.3328,Turkey,TR,TUR,1792655353
San Pedro Sula,San Pedro Sula,15.5,-88.0333,Honduras,HN,HND,1340568412
Niigata,Niigata,37.9161,139.0364,Japan,JP,JPN,1392913753
Hempstead,Hempstead,40.6629,-73.6089,United States,US,USA,1840005293
Leeds,Leeds,53.7975,-1.5436,United Kingdom,GB,GBR,1826343963
Hamamatsu,Hamamatsu,34.7108,137.7275,Japan,JP,JPN,1392174500
Pointe-Noire,Pointe-Noire,-4.7975,11.8503,Congo (Brazzaville),CG,COG,1178411563
Birmingham,Birmingham,33.5279,-86.7971,United States,US,USA,1840006507
Bucheon,Bucheon,37.5,126.7833,South Korea,KR,KOR,1410428222
Lubango,Lubango,-14.9167,13.5,Angola,AO,AGO,1024669127
Homs,Homs,34.7308,36.7094,Syria,SY,SYR,1760013934
Bilbao,Bilbao,43.2569,-2.9236,Spain,ES,ESP,1724331267
Frankfurt,Frankfurt,50.1106,8.6822,Germany,DE,DEU,1276054552
San Luis Potosí,San Luis Potosi,22.1511,-100.9761,Mexico,MX,MEX,1484583620
Khŭjand,Khujand,40.2833,69.6333,Tajikistan,TJ,TJK,1762372787
Albuquerque,Albuquerque,35.1054,-106.6465,United States,US,USA,1840019176
Erzurum,Erzurum,39.9086,41.2769,Turkey,TR,TUR,1792511957
Zagreb,Zagreb,45.8131,15.9775,Croatia,HR,HRV,1191233290
Al ‘Ayn,Al `Ayn,24.2075,55.7447,United Arab Emirates,AE,ARE,1784674685
Bahawalpur,Bahawalpur,29.3956,71.6836,Pakistan,PK,PAK,1586038700
Kaduna,Kaduna,10.5167,7.4333,Nigeria,NG,NGA,1566368729
Winnipeg,Winnipeg,49.8844,-97.1464,Canada,CA,CAN,1124224963
Trabzon,Trabzon,41.005,39.7225,Turkey,TR,TUR,1792019202
Baardheere,Baardheere,2.3333,42.2833,Somalia,SO,SOM,1706822684
Nerima,Nerima,35.7356,139.6517,Japan,JP,JPN,1392093402
Ciudad Guayana,Ciudad Guayana,8.3667,-62.65,Venezuela,VE,VEN,1862889027
Natal,Natal,-5.7833,-35.2,Brazil,BR,BRA,1076697777
Santo André,Santo Andre,-23.6572,-46.5333,Brazil,BR,BRA,1076625886
Ōta-ku,Ota-ku,35.5614,139.7161,Japan,JP,JPN,1392003511
Gaalkacyo,Gaalkacyo,6.7697,47.4308,Somalia,SO,SOM,1706067930
Osasco,Osasco,-23.5328,-46.7919,Brazil,BR,BRA,1076786452
Nampula,Nampula,-15.1167,39.2667,Mozambique,MZ,MOZ,1508958445
Pretoria,Pretoria,-25.7461,28.1881,South Africa,ZA,ZAF,1710176249
Kyaukse,Kyaukse,21.6131,96.1303,Burma,MM,MMR,1104814217
Cabinda,Cabinda,-5.56,12.19,Angola,AO,AGO,1024474012
Kumamoto,Kumamoto,32.8031,130.7078,Japan,JP,JPN,1392106283
Kermān,Kerman,30.2911,57.0678,Iran,IR,IRN,1364554896
Orūmīyeh,Orumiyeh,37.5439,45.0647,Iran,IR,IRN,1364158221
Bağcılar,Bagcilar,41.0344,28.8564,Turkey,TR,TUR,1792374908
Quebec City,Quebec City,46.8139,-71.2081,Canada,CA,CAN,1124823933
Umraniye,Umraniye,41.0311,29.1081,Turkey,TR,TUR,1792758804
Yanggok,Yanggok,37.6333,127.2167,South Korea,KR,KOR,1410188674
Tshikapa,Tshikapa,-6.4167,20.8,Congo (Kinshasa),CD,COD,1180581239
Tulsa,Tulsa,36.1283,-95.9042,United States,US,USA,1840021672
Osogbo,Osogbo,7.7667,4.5667,Nigeria,NG,NGA,1566395088
Comodoro Rivadavia,Comodoro Rivadavia,-45.8647,-67.4808,Argentina,AR,ARG,1032042035
Nottingham,Nottingham,52.9561,-1.1512,United Kingdom,GB,GBR,1826122597
Hamilton,Hamilton,43.2567,-79.8692,Canada,CA,CAN,1124567288
Cagayan de Oro,Cagayan de Oro,8.48,124.65,Philippines,PH,PHL,1608831546
Fresno,Fresno,36.783,-119.7939,United States,US,USA,1840020319
An Najaf,An Najaf,32,44.33,Iraq,IQ,IRQ,1368003357
Sorocaba,Sorocaba,-23.5017,-47.4581,Brazil,BR,BRA,1076758708
Sagamihara,Sagamihara,35.5667,139.3667,Japan,JP,JPN,1392967248
Pīshbar,Pishbar,33.3886,59.9789,Iran,IR,IRN,1364328516
Okayama,Okayama,34.65,133.9167,Japan,JP,JPN,1392954750
Concepción,Concepcion,-36.8282,-73.0514,Chile,CL,CHL,1152838958
Mississauga,Mississauga,43.6,-79.65,Canada,CA,CAN,1124112672
Lviv,Lviv,49.8425,24.0322,Ukraine,UA,UKR,1804939658
Vilnius,Vilnius,54.6872,25.28,Lithuania,LT,LTU,1440887149
Marka,Marka,1.7133,44.7656,Somalia,SO,SOM,1706165964
Enugu,Enugu,6.4528,7.5111,Nigeria,NG,NGA,1566212729
Valenzuela,Valenzuela,14.7,120.98,Philippines,PH,PHL,1608492120
Uberlândia,Uberlandia,-18.9231,-48.2886,Brazil,BR,BRA,1076495001
Zaporizhzhia,Zaporizhzhia,47.85,35.1175,Ukraine,UA,UKR,1804644752
George Town,George Town,5.4144,100.3292,Malaysia,MY,MYS,1458236750
Bristol,Bristol,51.4536,-2.5975,United Kingdom,GB,GBR,1826921049
Charleston,Charleston,32.8168,-79.9687,United States,US,USA,1840015163
Yenimahalle,Yenimahalle,39.9719,32.8119,Turkey,TR,TUR,1792692469
Dasmariñas,Dasmarinas,14.33,120.94,Philippines,PH,PHL,1608418544
Jaboatão,Jaboatao,-8.1803,-35.0014,Brazil,BR,BRA,1076000699
Chisinau,Chisinau,47.0228,28.8353,Moldova,MD,MDA,1498011437
Boosaaso,Boosaaso,11.2886,49.1819,Somalia,SO,SOM,1706054548
Port Moresby,Port Moresby,-9.4789,147.1494,Papua New Guinea,PG,PNG,1598685395
Latakia,Latakia,35.5167,35.7833,Syria,SY,SYR,1760555544
Rochester,Rochester,43.168,-77.6162,United States,US,USA,1840000373
Ribeirão Prêto,Ribeirao Preto,-21.1783,-47.8067,Brazil,BR,BRA,1076524478
Edogawa,Edogawa,35.7,139.8833,Japan,JP,JPN,1392135698
São José dos Campos,Sao Jose dos Campos,-23.1789,-45.8869,Brazil,BR,BRA,1076783887
General Santos,General Santos,6.12,125.17,Philippines,PH,PHL,1608171585
Ḩamāh,Hamah,35.1333,36.75,Syria,SY,SYR,1760197502
Bauchi,Bauchi,10.3158,9.8442,Nigeria,NG,NGA,1566483284
Pendik,Pendik,40.8747,29.235,Turkey,TR,TUR,1792824929
Sinnūris,Sinnuris,29.4072,30.8667,Egypt,EG,EGY,1818442898
Cocody,Cocody,5.35,-3.9667,Côte d’Ivoire,CI,CIV,1384351512
Lokoja,Lokoja,7.8019,6.7442,Nigeria,NG,NGA,1566772925
Guadalupe,Guadalupe,25.6775,-100.2597,Mexico,MX,MEX,1484002410
Karbalā’,Karbala',32.6167,44.0333,Iraq,IQ,IRQ,1368597794
Borvāyeh-ye Al Bū ‘Azīz,Borvayeh-ye Al Bu `Aziz,31.6283,48.6147,Iran,IR,IRN,1364441069
City of Parañaque,City of Paranaque,14.5008,120.9915,Philippines,PH,PHL,1608379532
Mamak,Mamak,39.9422,32.9231,Turkey,TR,TUR,1792465227
Tolyatti,Tolyatti,53.5089,49.4222,Russia,RU,RUS,1643256295
Shizuoka,Shizuoka,34.9756,138.3828,Japan,JP,JPN,1392235505
Agege,Agege,6.6219,3.3258,Nigeria,NG,NGA,1566564887
Mar del Plata,Mar del Plata,-38,-57.55,Argentina,AR,ARG,1032456103
Zaragoza,Zaragoza,41.65,-0.8833,Spain,ES,ESP,1724907391
Adachi,Adachi,35.7833,139.8,Japan,JP,JPN,1392464568
Rasht,Rasht,37.2744,49.5889,Iran,IR,IRN,1364630382
Cotonou,Cotonou,6.3667,2.4333,Benin,BJ,BEN,1204955174
Tasikmalaya,Tasikmalaya,-7.3161,108.1975,Indonesia,ID,IDN,1360027771
Soledad,Soledad,10.9167,-74.75,Colombia,CO,COL,1170765625
Acapulco de Juárez,Acapulco de Juarez,16.8636,-99.8825,Mexico,MX,MEX,1484463183
Bahār,Bahar,34.9028,48.4425,Iran,IR,IRN,1364891653
Wrocław,Wroclaw,51.11,17.0325,Poland,PL,POL,1616108520
Murcia,Murcia,37.9861,-1.1303,Spain,ES,ESP,1724107739
Łódź,Lodz,51.7769,19.4547,Poland,PL,POL,1616832750
Dayton,Dayton,39.7805,-84.2003,United States,US,USA,1840034249
Bulawayo,Bulawayo,-20.17,28.58,Zimbabwe,ZW,ZWE,1716032632
Huambo,Huambo,-12.7767,15.7347,Angola,AO,AGO,1024079828
Aracaju,Aracaju,-10.9167,-37.05,Brazil,BR,BRA,1076527830
Bacoor,Bacoor,14.4624,120.9645,Philippines,PH,PHL,1608869358
Rotterdam,Rotterdam,51.92,4.48,Netherlands,NL,NLD,1528892850
Tlaquepaque,Tlaquepaque,20.6167,-103.3167,Mexico,MX,MEX,1484087945
Villavicencio,Villavicencio,4.15,-73.6333,Colombia,CO,COL,1170426927
Makhachkala,Makhachkala,42.9667,47.4833,Russia,RU,RUS,1643580480
Banjarmasin,Banjarmasin,-3.32,114.5925,Indonesia,ID,IDN,1360685223
Catia La Mar,Catia La Mar,10.6,-67.0333,Venezuela,VE,VEN,1862657837
Al Hufūf,Al Hufuf,25.3833,49.5833,Saudi Arabia,SA,SAU,1682958157
Jalingo,Jalingo,8.9,11.3667,Nigeria,NG,NGA,1566732241
Sargodha,Sargodha,32.0836,72.6711,Pakistan,PK,PAK,1586696588
Bouaké,Bouake,7.6833,-5.0167,Côte d’Ivoire,CI,CIV,1384983838
Brampton,Brampton,43.6833,-79.7667,Canada,CA,CAN,1124625989
Abomey-Calavi,Abomey-Calavi,6.4486,2.3556,Benin,BJ,BEN,1204016569
Durango,Durango,24.025,-104.6675,Mexico,MX,MEX,1484854616
Cape Coral,Cape Coral,26.6443,-81.9957,United States,US,USA,1840015130
Tondo,Tondo,14.617,120.967,Philippines,PH,PHL,1608204201
Dayrūţ,Dayrut,27.5667,30.8167,Egypt,EG,EGY,1818248895
Tlalnepantla,Tlalnepantla,19.5367,-99.1947,Mexico,MX,MEX,1484861603
Ansan,Ansan,37.3167,126.8333,South Korea,KR,KOR,1410585171
Huế,Hue,16.4667,107.5792,Vietnam,VN,VNM,1704016023
San Jose del Monte,San Jose del Monte,14.8139,121.0453,Philippines,PH,PHL,1608850554
Ch’ŏnan,Ch'onan,36.81,127.1475,South Korea,KR,KOR,1410020455
Cuiabá,Cuiaba,-15.5958,-56.0969,Brazil,BR,BRA,1076112309
Ērer Sātā,Erer Sata,9.5667,41.3833,Ethiopia,ET,ETH,1231563638
Selçuklu,Selcuklu,37.8814,32.4922,Turkey,TR,TUR,1792683478
Izhevsk,Izhevsk,56.8333,53.1833,Russia,RU,RUS,1643983138
Honchō,Honcho,35.6946,139.9826,Japan,JP,JPN,1392505502
Jaboatão dos Guararapes,Jaboatao dos Guararapes,-8.1122,-35.0156,Brazil,BR,BRA,1076003460
Yıldırım,Yildirim,40.11,29.0821,Turkey,TR,TUR,1792764051
Mission Viejo,Mission Viejo,33.6096,-117.6551,United States,US,USA,1840020580
Sha Tin,Sha Tin,22.3802,114.1898,Hong Kong,HK,HKG,1344745541
Petaling Jaya,Petaling Jaya,3.0972,101.6444,Malaysia,MY,MYS,1458989343
Colorado Springs,Colorado Springs,38.8674,-104.7605,United States,US,USA,1840018825
Baton Rouge,Baton Rouge,30.442,-91.1311,United States,US,USA,1840013941
Manama,Manama,26.225,50.5775,Bahrain,BH,BHR,1048989486
Las Palmas,Las Palmas,28.1258,-15.4353,Spain,ES,ESP,1724501748
Chak Forty-one,Chak Forty-one,31.0167,73.85,Pakistan,PK,PAK,1586438684
Benghazi,Benghazi,32.1167,20.0667,Libya,LY,LBY,1434915572
Barnaul,Barnaul,53.3486,83.7764,Russia,RU,RUS,1643318931
Palermo,Palermo,38.1111,13.3517,Italy,IT,ITA,1380428434
Makati City,Makati City,14.5567,121.0214,Philippines,PH,PHL,1608725647
Düsseldorf,Dusseldorf,51.2333,6.7833,Germany,DE,DEU,1276615258
Allentown,Allentown,40.5961,-75.4756,United States,US,USA,1840001044
Ţūkh,Tukh,30.3539,31.2007,Egypt,EG,EGY,1818411967
Glasgow,Glasgow,55.8611,-4.25,United Kingdom,GB,GBR,1826836462
Namangan,Namangan,41.0011,71.6683,Uzbekistan,UZ,UZB,1860894033
Bazal’tove,Bazal'tove,50.6765,26.16,Ukraine,UA,UKR,1804864050
Al Qaţīf,Al Qatif,26.556,49.996,Saudi Arabia,SA,SAU,1682001245
Ulyanovsk,Ulyanovsk,54.3167,48.3667,Russia,RU,RUS,1643668944
Irkutsk,Irkutsk,52.2833,104.2833,Russia,RU,RUS,1643439037
Ogden,Ogden,41.2279,-111.9682,United States,US,USA,1840020135
Jos,Jos,9.9167,8.8903,Nigeria,NG,NGA,1566773679
Al Manşūrah,Al Mansurah,31.05,31.3833,Egypt,EG,EGY,1818255319
Contagem,Contagem,-19.9319,-44.0539,Brazil,BR,BRA,1076845191
Jambi,Jambi,-1.59,103.61,Indonesia,ID,IDN,1360645580
Ḩalwān,Halwan,29.8453,31.3333,Egypt,EG,EGY,1818000039
Provo,Provo,40.2457,-111.6457,United States,US,USA,1840020174
Tân An,Tan An,10.905,106.6994,Vietnam,VN,VNM,1704599287
Port-Bouët,Port-Bouet,5.2667,-3.9,Côte d’Ivoire,CI,CIV,1384512844
Pontianak,Pontianak,-0.0206,109.3414,Indonesia,ID,IDN,1360992394
Joinvile,Joinvile,-26.3204,-48.8437,Brazil,BR,BRA,1076050637
Feira de Santana,Feira de Santana,-12.25,-38.95,Brazil,BR,BRA,1076892244
Khabarovsk,Khabarovsk,48.4833,135.0833,Russia,RU,RUS,1643175363
Leipzig,Leipzig,51.34,12.375,Germany,DE,DEU,1276563678
Knoxville,Knoxville,35.9692,-83.9496,United States,US,USA,1840014486
Ta‘izz,Ta`izz,13.5789,44.0219,Yemen,YE,YEM,1887324526
Etimesgut,Etimesgut,39.9458,32.6694,Turkey,TR,TUR,1792684065
Tallinn,Tallinn,59.4372,24.7453,Estonia,EE,EST,1233260021
Chimalhuacán,Chimalhuacan,19.4167,-98.9,Mexico,MX,MEX,1484504936
Kandahār,Kandahar,31.62,65.7158,Afghanistan,AF,AFG,1004003059
Serang,Serang,-6.12,106.1503,Indonesia,ID,IDN,1360329102
Grand Rapids,Grand Rapids,42.9619,-85.6562,United States,US,USA,1840002928
Yukarıkaraman,Yukarikaraman,36.9167,30.6833,Turkey,TR,TUR,1792276393
Gothenburg,Gothenburg,57.7075,11.9675,Sweden,SE,SWE,1752059374
Kuantan,Kuantan,3.8167,103.3333,Malaysia,MY,MYS,1458763489
Gold Coast,Gold Coast,-28.0167,153.4,Australia,AU,AUS,1036153217
Kawaguchi,Kawaguchi,35.8077,139.7241,Japan,JP,JPN,1392975133
Las Piñas City,Las Pinas City,14.45,120.98,Philippines,PH,PHL,1608544537
San Miguel de Tucumán,San Miguel de Tucuman,-26.8167,-65.2167,Argentina,AR,ARG,1032233996
Ar Rayyān,Ar Rayyan,25.25,51.4,Qatar,QA,QAT,1634097551
Malanje,Malanje,-9.5333,16.35,Angola,AO,AGO,1024774947
Columbia,Columbia,34.0378,-80.9036,United States,US,USA,1840014730
Kryvyi Rih,Kryvyi Rih,47.91,33.39,Ukraine,UA,UKR,1804544901
Djibouti,Djibouti,11.5883,43.145,Djibouti,DJ,DJI,1262028958
Tunis,Tunis,36.8064,10.1817,Tunisia,TN,TUN,1788742103
Yaroslavl,Yaroslavl,57.6167,39.85,Russia,RU,RUS,1643338528
Bacolod,Bacolod,10.6765,122.9509,Philippines,PH,PHL,1608244137
Garoua,Garoua,9.3,13.4,Cameroon,CM,CMR,1120803808
Bafoussam,Bafoussam,5.4667,10.4167,Cameroon,CM,CMR,1120435460
Haifa,Haifa,32.8192,34.9992,Israel,IL,ISR,1376133727
Balikpapan,Balikpapan,-1.2768,116.8277,Indonesia,ID,IDN,1360500922
Somolu,Somolu,6.5408,3.3872,Nigeria,NG,NGA,1566609760
Vladivostok,Vladivostok,43.1333,131.9,Russia,RU,RUS,1643832017
Al Ḩillah,Al Hillah,23.4895,46.7564,Saudi Arabia,SA,SAU,1682494753
Melikgazi,Melikgazi,38.7167,35.5,Turkey,TR,TUR,1792810254
Kagoshima,Kagoshima,31.6,130.55,Japan,JP,JPN,1392120675
Dortmund,Dortmund,51.5139,7.4653,Germany,DE,DEU,1276562886
Irapuato,Irapuato,20.6667,-101.35,Mexico,MX,MEX,1484625454
Al Maḩallah al Kubrá,Al Mahallah al Kubra,30.9686,31.1636,Egypt,EG,EGY,1818406471
Sialkot City,Sialkot City,32.4925,74.5311,Pakistan,PK,PAK,1586141444
Albany,Albany,42.6664,-73.7987,United States,US,USA,1840000417
Pereira,Pereira,4.8143,-75.6946,Colombia,CO,COL,1170386718
Gaza,Gaza,31.5069,34.456,Gaza Strip,XG,XGZ,1916116052
Uvira,Uvira,-3.4,29.15,Congo (Kinshasa),CD,COD,1180205443
Reynosa,Reynosa,26.0922,-98.2778,Mexico,MX,MEX,1484737671
Zāhedān,Zahedan,29.5025,60.8558,Iran,IR,IRN,1364072353
Cimahi,Cimahi,-6.8712,107.5548,Indonesia,ID,IDN,1360181436
Mbale,Mbale,1.0806,34.175,Uganda,UG,UGA,1800265900
Essen,Essen,51.4508,7.0131,Germany,DE,DEU,1276769247
Itabashi,Itabashi,35.7667,139.6833,Japan,JP,JPN,1392836404
Shah Alam,Shah Alam,3.0722,101.5167,Malaysia,MY,MYS,1458194263
Suginami-ku,Suginami-ku,35.6994,139.6364,Japan,JP,JPN,1392003090
Kingston,Kingston,17.9714,-76.7931,Jamaica,JM,JAM,1388709177
Al Mafraq,Al Mafraq,32.3399,36.2052,Jordan,JO,JOR,1400040712
Aţ Ţā’if,At Ta'if,21.2751,40.4062,Saudi Arabia,SA,SAU,1682956102
Port Sudan,Port Sudan,19.6167,37.2167,Sudan,SD,SDN,1729710259
Tuxtla,Tuxtla,16.7528,-93.1167,Mexico,MX,MEX,1484832519
Mymensingh,Mymensingh,24.7539,90.4031,Bangladesh,BD,BGD,1050399881
Hachiōji,Hachioji,35.6664,139.316,Japan,JP,JPN,1392172935
Iloilo,Iloilo,10.72,122.57,Philippines,PH,PHL,1608875987
Puente Alto,Puente Alto,-33.6167,-70.5667,Chile,CL,CHL,1152516346
Tomsk,Tomsk,56.5,84.9667,Russia,RU,RUS,1643258928
Rabat,Rabat,34.0209,-6.8416,Morocco,MA,MAR,1504023252
Sincan,Sincan,39.9594,32.5767,Turkey,TR,TUR,1792007259
Bakersfield,Bakersfield,35.3529,-119.0359,United States,US,USA,1840019148
Shibīn al Qanāţir,Shibin al Qanatir,30.3133,31.3214,Egypt,EG,EGY,1818406704
Nakuru,Nakuru,-0.3,36.0667,Kenya,KE,KEN,1404140179
Tonalá,Tonala,20.6167,-103.2333,Mexico,MX,MEX,1484750897
Bremen,Bremen,53.0758,8.8072,Germany,DE,DEU,1276376509
Abū Ḩummuş,Abu Hummus,31.1006,30.3128,Egypt,EG,EGY,1818221429
Irbid,Irbid,32.55,35.85,Jordan,JO,JOR,1400221568
Macau,Macau,22.2006,113.5461,Macau,MO,MAC,1446227359
Surrey,Surrey,49.19,-122.8489,Canada,CA,CAN,1124001454
Ciudad Bolívar,Ciudad Bolivar,8.1219,-63.55,Venezuela,VE,VEN,1862318264
New Haven,New Haven,41.3113,-72.9246,United States,US,USA,1840004850
Orenburg,Orenburg,51.7833,55.1,Russia,RU,RUS,1643685056
Dresden,Dresden,51.05,13.74,Germany,DE,DEU,1276561036
Bello,Bello,6.3333,-75.5667,Colombia,CO,COL,1170423489
Kemerovo,Kemerovo,55.3667,86.0667,Russia,RU,RUS,1643216311
Genoa,Genoa,44.4111,8.9328,Italy,IT,ITA,1380716540
Herāt,Herat,34.3419,62.2031,Afghanistan,AF,AFG,1004237782
Londrina,Londrina,-23.31,-51.1628,Brazil,BR,BRA,1076723241
Cuautitlán Izcalli,Cuautitlan Izcalli,19.65,-99.25,Mexico,MX,MEX,1484282338
Uyo,Uyo,5.0333,7.9275,Nigeria,NG,NGA,1566061694
Hamadān,Hamadan,34.8064,48.5161,Iran,IR,IRN,1364126377
Chiclayo,Chiclayo,-6.763,-79.8366,Peru,PE,PER,1604799615
Surakarta,Surakarta,-7.5667,110.8167,Indonesia,ID,IDN,1360853933
Novokuznetsk,Novokuznetsk,53.7667,87.1333,Russia,RU,RUS,1643628717
Kimhae,Kimhae,35.2342,128.8811,South Korea,KR,KOR,1410836094
Palma,Palma,39.5667,2.65,Spain,ES,ESP,1724728111
Rustenburg,Rustenburg,-25.6667,27.2428,South Africa,ZA,ZAF,1710326039
Des Moines,Des Moines,41.5725,-93.6105,United States,US,USA,1840007069
Lisbon,Lisbon,38.7253,-9.15,Portugal,PT,PRT,1620619017
Al Ḩudaydah,Al Hudaydah,14.8022,42.9511,Yemen,YE,YEM,1887984890
Anyang,Anyang,37.3833,126.9333,South Korea,KR,KOR,1410581095
The Hague,The Hague,52.08,4.31,Netherlands,NL,NLD,1528799905
Andijon,Andijon,40.7833,72.3333,Uzbekistan,UZ,UZB,1860445095
Manchester,Manchester,53.479,-2.2452,United Kingdom,GB,GBR,1826246335
Poznań,Poznan,52.4083,16.9336,Poland,PL,POL,1616725607
Samarkand,Samarkand,39.6547,66.9758,Uzbekistan,UZ,UZB,1860388706
Hannover,Hannover,52.3667,9.7167,Germany,DE,DEU,1276457707
Sungai Petani,Sungai Petani,5.65,100.5,Malaysia,MY,MYS,1458639918
Valledupar,Valledupar,10.4833,-73.25,Colombia,CO,COL,1170481949
Muntinlupa City,Muntinlupa City,14.38,121.05,Philippines,PH,PHL,1608473406
Ixtapaluca,Ixtapaluca,19.3186,-98.8822,Mexico,MX,MEX,1484452937
Heroica Matamoros,Heroica Matamoros,25.8797,-97.5042,Mexico,MX,MEX,1484614906
Akron,Akron,41.0798,-81.5219,United States,US,USA,1840000791
Mbeya,Mbeya,-8.9,33.45,Tanzania,TZ,TZA,1834396594
An Nāşirīyah,An Nasiriyah,31.0439,46.2575,Iraq,IQ,IRQ,1368273311
Ibagué,Ibague,4.4333,-75.2333,Colombia,CO,COL,1170245063
Al Ḩillah,Al Hillah,32.4775,44.4314,Iraq,IQ,IRQ,1368916692
Juiz de Fora,Juiz de Fora,-21.7619,-43.3494,Brazil,BR,BRA,1076006144
City of Calamba,City of Calamba,14.22,121.17,Philippines,PH,PHL,1608985581
El Geneina,El Geneina,13.45,22.45,Sudan,SD,SDN,1729642412
Santa Cruz,Santa Cruz,28.4667,-16.25,Spain,ES,ESP,1724813158
Ryazan,Ryazan,54.63,39.7425,Russia,RU,RUS,1643205787
Florianópolis,Florianopolis,-27.6122,-48.4853,Brazil,BR,BRA,1076190259
Nilüfer,Nilufer,40.2833,28.95,Turkey,TR,TUR,1792222655
Antwerp,Antwerp,51.2178,4.4003,Belgium,BE,BEL,1056168623
Kassala,Kassala,15.45,36.4,Sudan,SD,SDN,1729157224
Salta,Salta,-24.7833,-65.4167,Argentina,AR,ARG,1032926124
Palm Bay,Palm Bay,27.9631,-80.6593,United States,US,USA,1840015094
Naberezhnyye Chelny,Naberezhnyye Chelny,55.6833,52.3167,Russia,RU,RUS,1643008493
Nansana,Nansana,0.3639,32.5286,Uganda,UG,UGA,1800032516
Concord,Concord,37.9722,-122.0016,United States,US,USA,1840018905
Beira,Beira,-19.8333,34.85,Mozambique,MZ,MOZ,1508407369
Yazd,Yazd,31.8822,54.3397,Iran,IR,IRN,1364429875
Ardabīl,Ardabil,38.2425,48.29,Iran,IR,IRN,1364437616
Touba,Touba,14.8667,-15.8833,Senegal,SN,SEN,1686956738
Ndola,Ndola,-12.9689,28.6325,Zambia,ZM,ZMB,1894032745
Himeji,Himeji,34.8167,134.6833,Japan,JP,JPN,1392003149
Bandar ‘Abbās,Bandar `Abbas,27.1961,56.2878,Iran,IR,IRN,1364120623
Skopje,Skopje,41.9961,21.4317,North Macedonia,MK,MKD,1807600615
Santa Teresa del Tuy,Santa Teresa del Tuy,10.2333,-66.6639,Venezuela,VE,VEN,1862528581
Port Said,Port Said,31.2625,32.3061,Egypt,EG,EGY,1818628574
Astrakhan,Astrakhan,46.35,48.035,Russia,RU,RUS,1643407929
Kōtō-ku,Koto-ku,35.6667,139.8167,Japan,JP,JPN,1392003346
Ciudad Apodaca,Ciudad Apodaca,25.7817,-100.1886,Mexico,MX,MEX,1484855080
Montería,Monteria,8.75,-75.8833,Colombia,CO,COL,1170855299
Nuremberg,Nuremberg,49.4539,11.0775,Germany,DE,DEU,1276166609
Kitchener,Kitchener,43.4186,-80.4728,Canada,CA,CAN,1124158530
Soacha,Soacha,4.5872,-74.2214,Colombia,CO,COL,1170512000
Buca,Buca,38.35,27.1667,Turkey,TR,TUR,1792571515
Lyon,Lyon,45.76,4.84,France,FR,FRA,1250196189
Maipú,Maipu,-33.5167,-70.7667,Chile,CL,CHL,1152583016
Arāk,Arak,34.0914,49.6933,Iran,IR,IRN,1364624691
Serra,Serra,-20.1289,-40.3078,Brazil,BR,BRA,1076191325
Tultitlán de Mariano Escobedo,Tultitlan de Mariano Escobedo,19.645,-99.1694,Mexico,MX,MEX,1484562374
Meknès,Meknes,33.895,-5.5547,Morocco,MA,MAR,1504333193
Bắc Ninh,Bac Ninh,21.1833,106.05,Vietnam,VN,VNM,1704025181
Al Fayyūm,Al Fayyum,29.3084,30.8441,Egypt,EG,EGY,1818281002
Utsunomiya,Utsunomiya,36.5551,139.8826,Japan,JP,JPN,1392506125
Sheffield,Sheffield,53.3808,-1.4703,United Kingdom,GB,GBR,1826289852
Mixco,Mixco,14.6331,-90.6064,Guatemala,GT,GTM,1320420152
Suez,Suez,29.9667,32.55,Egypt,EG,EGY,1818495972
Penza,Penza,53.2,45,Russia,RU,RUS,1643492830
Santa Marta,Santa Marta,11.2419,-74.2053,Colombia,CO,COL,1170715594
Abū Ţisht,Abu Tisht,26.1183,32.0953,Egypt,EG,EGY,1818097618
Maturín,Maturin,9.75,-63.183,Venezuela,VE,VEN,1862546949
Liverpool,Liverpool,53.4094,-2.9785,United Kingdom,GB,GBR,1826558678
Macapá,Macapa,0.033,-51.05,Brazil,BR,BRA,1076189884
Benguela,Benguela,-12.55,13.4167,Angola,AO,AGO,1024141961
Al Fashn,Al Fashn,28.8227,30.8992,Egypt,EG,EGY,1818503615
Al ‘Amārah,Al `Amarah,31.8333,47.15,Iraq,IQ,IRQ,1368336235
Carrefour,Carrefour,18.5344,-72.4094,Haiti,HT,HTI,1332000098
Campos,Campos,-21.7539,-41.3239,Brazil,BR,BRA,1076606365
Cadaado,Cadaado,6.1403,46.6256,Somalia,SO,SOM,1706406560
Bibā,Biba,28.9218,30.9844,Egypt,EG,EGY,1818994454
Wichita,Wichita,37.6895,-97.3443,United States,US,USA,1840001686
Leicester,Leicester,52.6344,-1.1319,United Kingdom,GB,GBR,1826431946
Newcastle,Newcastle,-27.7464,29.9328,South Africa,ZA,ZAF,1710031016
Hải Dương,Hai Duong,20.9397,106.3306,Vietnam,VN,VNM,1704909566
Aden,Aden,12.8,45.0333,Yemen,YE,YEM,1887867886
Matsuyama,Matsuyama,33.8333,132.7667,Japan,JP,JPN,1392220893
Kitwe,Kitwe,-12.8167,28.2,Zambia,ZM,ZMB,1894321752
Toulouse,Toulouse,43.6045,1.444,France,FR,FRA,1250258110
Pohang,Pohang,36.0322,129.365,South Korea,KR,KOR,1410983252
Mesa,Mesa,33.4015,-111.7178,United States,US,USA,1840020566
Lipetsk,Lipetsk,52.6167,39.6,Russia,RU,RUS,1643772906
Duisburg,Duisburg,51.4347,6.7625,Germany,DE,DEU,1276977172
Ile-Ife,Ile-Ife,7.4667,4.5667,Nigeria,NG,NGA,1566756897
Homyel’,Homyel',52.4453,30.9842,Belarus,BY,BLR,1112580227
Kirov,Kirov,58.6,49.6833,Russia,RU,RUS,1643106064
Mazatlán,Mazatlan,23.2167,-106.4167,Mexico,MX,MEX,1484841466
El Fasher,El Fasher,13.6306,25.35,Sudan,SD,SDN,1729372385
Farāh,Farah,32.3436,62.1194,Afghanistan,AF,AFG,1004523791
Belas,Belas,-8.9983,13.265,Angola,AO,AGO,1024196826
Talatona,Talatona,-8.9167,13.1833,Angola,AO,AGO,1024988332
Sukkur,Sukkur,27.7061,68.8483,Pakistan,PK,PAK,1586383591
Hsinchu,Hsinchu,24.8167,120.9833,Taiwan,TW,TWN,1158276420
Harrisburg,Harrisburg,40.2752,-76.8843,United States,US,USA,1840001288
Kaliningrad,Kaliningrad,54.7003,20.4531,Russia,RU,RUS,1643178106
Qaraghandy,Qaraghandy,49.8028,73.1056,Kazakhstan,KZ,KAZ,1398274508
Lapu-Lapu City,Lapu-Lapu City,10.3127,123.9488,Philippines,PH,PHL,1608430676
Matsudo,Matsudo,35.7876,139.9032,Japan,JP,JPN,1392642525
Johor Bahru,Johor Bahru,1.4556,103.7611,Malaysia,MY,MYS,1458747615
Imus,Imus,14.4297,120.9367,Philippines,PH,PHL,1608802508
Niterói,Niteroi,-22.8833,-43.1036,Brazil,BR,BRA,1076501425
Staten Island,Staten Island,40.5834,-74.1496,United States,US,USA,1840034032
Lembok,Lembok,-8.565,116.351,Indonesia,ID,IDN,1360013261
Likasi,Likasi,-10.9833,26.7333,Congo (Kinshasa),CD,COD,1180978192
Oujda-Angad,Oujda-Angad,34.6867,-1.9114,Morocco,MA,MAR,1504891036
Toledo,Toledo,41.6638,-83.5827,United States,US,USA,1840000572
Pindi Bhattian,Pindi Bhattian,31.8958,73.2761,Pakistan,PK,PAK,1586986678
Nyala,Nyala,12.05,24.8833,Sudan,SD,SDN,1729833248
Bissau,Bissau,11.85,-15.5667,Guinea-Bissau,GW,GNB,1624168850
Ichikawa,Ichikawa,35.7219,139.9311,Japan,JP,JPN,1392076347
Kota Bharu,Kota Bharu,6.1333,102.25,Malaysia,MY,MYS,1458150101
Higashi-ōsaka,Higashi-osaka,34.6794,135.6008,Japan,JP,JPN,1392117396
Larkana,Larkana,27.5583,68.2111,Pakistan,PK,PAK,1586678302
‘Ajmān,`Ajman,25.4136,55.4456,United Arab Emirates,AE,ARE,1784337875
Vinh,Vinh,18.6667,105.6667,Vietnam,VN,VNM,1704960059
Ciudad López Mateos,Ciudad Lopez Mateos,19.55,-99.2833,Mexico,MX,MEX,1484363879
Cheboksary,Cheboksary,56.15,47.2333,Russia,RU,RUS,1643163382
Caerdydd,Caerdydd,51.4833,-3.1833,United Kingdom,GB,GBR,1826362422
Edinburgh,Edinburgh,55.9533,-3.1892,United Kingdom,GB,GBR,1826492520
Brookhaven,Brookhaven,40.832,-72.9517,United States,US,USA,1840057464
Nishinomiya-hama,Nishinomiya-hama,34.7376,135.3416,Japan,JP,JPN,1392114116
Worcester,Worcester,42.2705,-71.8079,United States,US,USA,1840000434
Kawachichō,Kawachicho,34.6794,135.6008,Japan,JP,JPN,1392309686
Gdańsk,Gdansk,54.3475,18.6453,Poland,PL,POL,1616406372
Sevastopol,Sevastopol,44.605,33.5225,Ukraine,UA,UKR,1804806030
Garoowe,Garoowe,8.4,48.4667,Somalia,SO,SOM,1706512367
Villa Nueva,Villa Nueva,14.5269,-90.5875,Guatemala,GT,GTM,1320353009
Akhmīm,Akhmim,26.5667,31.75,Egypt,EG,EGY,1818295057
Şanlıurfa,Sanliurfa,37.1583,38.7917,Turkey,TR,TUR,1792937570
Az Zarqā’,Az Zarqa',32.0833,36.1,Jordan,JO,JOR,1400161837
São José do Rio Prêto,Sao Jose do Rio Preto,-20.8081,-49.3811,Brazil,BR,BRA,1076760827
Valletta,Valletta,35.8983,14.5125,Malta,MT,MLT,1470574399
Kolwezi,Kolwezi,-10.7167,25.4667,Congo (Kinshasa),CD,COD,1180380965
Sylhet,Sylhet,24.9,91.8667,Bangladesh,BD,BGD,1050646703
Ananindeua,Ananindeua,-1.3658,-48.3719,Brazil,BR,BRA,1076025295
East London,East London,-33.0175,27.9047,South Africa,ZA,ZAF,1710178149
Berbera,Berbera,10.4356,45.0164,Somalia,SO,SOM,1706893125
Chiniot,Chiniot,31.7194,72.9842,Pakistan,PK,PAK,1586413435
Asunción,Asuncion,-25.3,-57.6333,Paraguay,PY,PRY,1600057911
Ōita,Oita,33.2333,131.6067,Japan,JP,JPN,1392081193
Eldoret,Eldoret,0.5167,35.2833,Kenya,KE,KEN,1404676289
Bratislava,Bratislava,48.1439,17.1097,Slovakia,SK,SVK,1703195001
Kurashiki,Kurashiki,34.585,133.7722,Japan,JP,JPN,1392003246
Al Jubayl,Al Jubayl,27,49.6544,Saudi Arabia,SA,SAU,1682564079
Worthing,Worthing,50.8147,-0.3714,United Kingdom,GB,GBR,1826936965
Shekhupura,Shekhupura,31.7111,73.9878,Pakistan,PK,PAK,1586291726
Piura,Piura,-5.2,-80.6333,Peru,PE,PER,1604331641
Vila Velha,Vila Velha,-20.3364,-40.2936,Brazil,BR,BRA,1076404077
Ar Ruşayfah,Ar Rusayfah,32.0178,36.0464,Jordan,JO,JOR,1400369457
San Juan,San Juan,-31.5342,-68.5261,Argentina,AR,ARG,1032869625
Mykolaiv,Mykolaiv,46.975,31.995,Ukraine,UA,UKR,1804398395
Küçükçekmece,Kucukcekmece,41,28.8,Turkey,TR,TUR,1792992349
Mazār-e Sharīf,Mazar-e Sharif,36.7,67.1167,Afghanistan,AF,AFG,1004436363
Balashikha,Balashikha,55.8167,37.9667,Russia,RU,RUS,1643989845
Tula,Tula,54.2,37.6167,Russia,RU,RUS,1643255206
Ba‘qūbah,Ba`qubah,33.75,44.6333,Iraq,IQ,IRQ,1368444902
Katlehong,Katlehong,-26.3333,28.15,South Africa,ZA,ZAF,1710975690
Buraydah,Buraydah,26.3333,43.9667,Saudi Arabia,SA,SAU,1682470726
Surab,Surab,28.4925,66.2597,Pakistan,PK,PAK,1586127180
Kupang,Kupang,-10.1702,123.6077,Indonesia,ID,IDN,1360696757
Nakhon Ratchasima,Nakhon Ratchasima,14.975,102.1,Thailand,TH,THA,1764752197
Tân Uyên,Tan Uyen,11.0508,106.7636,Vietnam,VN,VNM,1704985934
Constantine,Constantine,36.35,6.6,Algeria,DZ,DZA,1012275076
Caxias do Sul,Caxias do Sul,-29.1667,-51.1833,Brazil,BR,BRA,1076809957
Angeles City,Angeles City,15.1472,120.5847,Philippines,PH,PHL,1608036027
Kanazawa,Kanazawa,36.5611,136.6564,Japan,JP,JPN,1392684679
Long Beach,Long Beach,33.7977,-118.167,United States,US,USA,1840020490
Port St. Lucie,Port St. Lucie,27.2796,-80.3884,United States,US,USA,1840015119
Manado Light,Manado Light,1.4931,124.8413,Indonesia,ID,IDN,1360843220
Kartal,Kartal,40.8872,29.19,Turkey,TR,TUR,1792988658
Cranbourne,Cranbourne,-38.0996,145.2834,Australia,AU,AUS,1036685862
Porto Velho,Porto Velho,-8.7619,-63.9039,Brazil,BR,BRA,1076045591
Fukuyama,Fukuyama,34.4858,133.3622,Japan,JP,JPN,1392551602
Little Rock,Little Rock,34.7256,-92.3577,United States,US,USA,1840015509
Juba,Juba,4.85,31.6,South Sudan,SS,SSD,1728444337
Lanús,Lanus,-34.7,-58.4,Argentina,AR,ARG,1032009573
Amagasaki,Amagasaki,34.7333,135.4,Japan,JP,JPN,1392003182
Kikwit,Kikwit,-5.0386,18.8181,Congo (Kinshasa),CD,COD,1180518247
Pyeongtaek,Pyeongtaek,36.9922,127.1128,South Korea,KR,KOR,1410641095
Reno,Reno,39.5497,-119.8483,United States,US,USA,1840020121
Spokane,Spokane,47.6671,-117.433,United States,US,USA,1840021093
Marikina City,Marikina City,14.65,121.1,Philippines,PH,PHL,1608000077
Melaka,Melaka,2.1944,102.2486,Malaysia,MY,MYS,1458467506
Manado,Manado,1.4931,124.8413,Indonesia,ID,IDN,1360771278
Manizales,Manizales,5.1,-75.55,Colombia,CO,COL,1170930654
Bornova,Bornova,38.4697,27.2211,Turkey,TR,TUR,1792155152
Demiryol,Demiryol,37.887,41.132,Turkey,TR,TUR,1792380039
Erköklü,Erkoklu,37.887,41.132,Turkey,TR,TUR,1792894535
Kota Kinabalu,Kota Kinabalu,5.975,116.0725,Malaysia,MY,MYS,1458441859
Katsushika-ku,Katsushika-ku,35.7333,139.85,Japan,JP,JPN,1392003368
Madison,Madison,43.0822,-89.393,United States,US,USA,1840002915
Santiago de Cuba,Santiago de Cuba,20.0217,-75.8294,Cuba,CU,CUB,1192766111
Kursk,Kursk,51.7167,36.1833,Russia,RU,RUS,1643011077
Mogi das Cruzes,Mogi das Cruzes,-23.5228,-46.1878,Brazil,BR,BRA,1076857883
Stavropol,Stavropol,45.05,41.9833,Russia,RU,RUS,1643947228
General Trias,General Trias,14.38,120.88,Philippines,PH,PHL,1608826995
Sirājganj,Sirajganj,24.45,89.75,Bangladesh,BD,BGD,1050687094
Boise,Boise,43.6005,-116.2308,United States,US,USA,1840027142
Bonita Springs,Bonita Springs,26.3558,-81.7859,United States,US,USA,1840014227
Mariupol,Mariupol,47.0958,37.5494,Ukraine,UA,UKR,1804630021
Eslāmshahr,Eslamshahr,35.5317,51.2247,Iran,IR,IRN,1364870126
Piraeus,Piraeus,37.943,23.6469,Greece,GR,GRC,1300458367
Barcelona,Barcelona,10.1403,-64.6833,Venezuela,VE,VEN,1862418619
Zürich,Zurich,47.3744,8.5411,Switzerland,CH,CHE,1756539143
Ado-Ekiti,Ado-Ekiti,7.6211,5.2214,Nigeria,NG,NGA,1566196391
Batman,Batman,37.887,41.132,Turkey,TR,TUR,1792630786
Esenler,Esenler,41.0339,28.8903,Turkey,TR,TUR,1792000667
Rodriguez,Rodriguez,14.72,121.12,Philippines,PH,PHL,1608543530
Ensenada,Ensenada,31.8578,-116.6058,Mexico,MX,MEX,1484714297
Chauddagram,Chauddagram,23.2283,91.3133,Bangladesh,BD,BGD,1050749168
Kahramanmaraş,Kahramanmaras,37.5833,36.9333,Turkey,TR,TUR,1792726797
San Nicolás de los Garza,San Nicolas de los Garza,25.75,-100.2833,Mexico,MX,MEX,1484264138
Taoyuan District,Taoyuan District,24.9913,121.3143,Taiwan,TW,TWN,1158127875
Ndjili,Ndjili,-4.4089,15.3775,Congo (Kinshasa),CD,COD,1180965012
Pasay City,Pasay City,14.55,121,Philippines,PH,PHL,1608448280
Halifax,Halifax,44.6475,-63.5906,Canada,CA,CAN,1124130981
Fujisawa,Fujisawa,35.35,139.4667,Japan,JP,JPN,1392640771
Ulan-Ude,Ulan-Ude,51.8333,107.6,Russia,RU,RUS,1643774900
Denton,Denton,33.2175,-97.1418,United States,US,USA,1840019390
Laval,Laval,45.5833,-73.75,Canada,CA,CAN,1124922301
Oakland,Oakland,37.7904,-122.2166,United States,US,USA,1840020296
Springfield,Springfield,42.1155,-72.5395,United States,US,USA,1840000466
Augusta,Augusta,33.3645,-82.0708,United States,US,USA,1840029462
Kâğıthane,Kagithane,41.0719,28.9664,Turkey,TR,TUR,1792526380
Avcılar,Avcilar,40.9792,28.7214,Turkey,TR,TUR,1792144759
Jeju,Jeju,33.513,126.523,South Korea,KR,KOR,1410364424
Machida,Machida,35.5542,139.4431,Japan,JP,JPN,1392788615
Sanghar,Sanghar,26.0442,68.9536,Pakistan,PK,PAK,1586840922
Al Marāghah,Al Maraghah,26.7,31.6,Egypt,EG,EGY,1818170583
Bandung,Bandung,-6.912,107.6097,Indonesia,ID,IDN,1360313023
Kissimmee,Kissimmee,28.3041,-81.4169,United States,US,USA,1840015109
Kenitra,Kenitra,34.25,-6.5833,Morocco,MA,MAR,1504534876
Windhoek,Windhoek,-22.57,17.0836,Namibia,NA,NAM,1516802003
Sidi Bouzid,Sidi Bouzid,35.0381,9.4858,Tunisia,TN,TUN,1788196439
Ţanţā,Tanta,30.7833,31,Egypt,EG,EGY,1818501770
Ismailia,Ismailia,30.5833,32.2667,Egypt,EG,EGY,1818532766
Cusco,Cusco,-13.525,-71.9722,Peru,PE,PER,1604162901
Veracruz,Veracruz,19.1903,-96.1533,Mexico,MX,MEX,1484992153
Sokoto,Sokoto,13.0622,5.2339,Nigeria,NG,NGA,1566574518
Winston-Salem,Winston-Salem,36.1029,-80.261,United States,US,USA,1840015324
Kashiwa,Kashiwa,35.8676,139.9758,Japan,JP,JPN,1392133166
Al Bājūr,Al Bajur,30.4333,31.0569,Egypt,EG,EGY,1818896076
Malatya,Malatya,38.3486,38.3194,Turkey,TR,TUR,1792485155
Aomori,Aomori,40.8228,140.7469,Japan,JP,JPN,1392083898
Mandaluyong City,Mandaluyong City,14.58,121.03,Philippines,PH,PHL,1608166320
Aves,Aves,41.44,-8.3,Portugal,PT,PRT,1620507201
Sihŭng,Sihung,37.3799,126.8029,South Korea,KR,KOR,1410313432
Burco,Burco,9.5279,45.5345,Somalia,SO,SOM,1706322754
Tver,Tver,56.8625,35.9242,Russia,RU,RUS,1643456559
Xalapa,Xalapa,19.54,-96.9275,Mexico,MX,MEX,1484334948
Buenaventura,Buenaventura,3.8772,-77.0267,Colombia,CO,COL,1170287988
London,London,42.9836,-81.2497,Canada,CA,CAN,1124469960
Piracicaba,Piracicaba,-22.7253,-47.6492,Brazil,BR,BRA,1076166252
Yogyakarta,Yogyakarta,-7.8014,110.3644,Indonesia,ID,IDN,1360384833
Toyota,Toyota,35.0824,137.1563,Japan,JP,JPN,1392498272
Daloa,Daloa,6.8833,-6.45,Côte d’Ivoire,CI,CIV,1384564974
Agadir,Agadir,30.4333,-9.6,Morocco,MA,MAR,1504116858
Elazığ,Elazig,38.6744,39.2228,Turkey,TR,TUR,1792156766
Uijeongbu,Uijeongbu,37.7486,127.0389,South Korea,KR,KOR,1410888678
Hpa-An,Hpa-An,16.8906,97.6333,Burma,MM,MMR,1104494124
Rahimyar Khan,Rahimyar Khan,28.42,70.3,Pakistan,PK,PAK,1586136399
Ugep,Ugep,5.8,8.0833,Nigeria,NG,NGA,1566000091
Sarajevo,Sarajevo,43.8564,18.4131,Bosnia and Herzegovina,BA,BIH,1070966777
Seremban,Seremban,2.7222,101.9417,Malaysia,MY,MYS,1458051507
Campina Grande,Campina Grande,-7.2306,-35.8811,Brazil,BR,BRA,1076218697
Kowloon City,Kowloon City,22.3282,114.1916,Hong Kong,HK,HKG,1344000061
Tirana,Tirana,41.3289,19.8178,Albania,AL,ALB,1008162156
Kushtia,Kushtia,23.9101,89.1231,Bangladesh,BD,BGD,1050000610
El Obeid,El Obeid,13.1833,30.2167,Sudan,SD,SDN,1729215531
Mauá,Maua,-23.6678,-46.4608,Brazil,BR,BRA,1076477498
Magnitogorsk,Magnitogorsk,53.3833,59.0333,Russia,RU,RUS,1643987830
Luhansk,Luhansk,48.5678,39.3031,Ukraine,UA,UKR,1804688214
Takamatsu,Takamatsu,34.35,134.05,Japan,JP,JPN,1392427161
Arusha,Arusha,-3.3667,36.6833,Tanzania,TZ,TZA,1834484937
Ajdābiyā,Ajdabiya,30.7556,20.2253,Libya,LY,LBY,1434401280
Callao,Callao,-12.0522,-77.1392,Peru,PE,PER,1604422141
Awsīm,Awsim,30.1167,31.1333,Egypt,EG,EGY,1818167257
Shinagawa-ku,Shinagawa-ku,35.6,139.7333,Japan,JP,JPN,1392003304
Paju,Paju,37.8667,126.8,South Korea,KR,KOR,1410365324
Santa Rosa,Santa Rosa,14.32,121.12,Philippines,PH,PHL,1608571683
Jhang City,Jhang City,31.2694,72.3161,Pakistan,PK,PAK,1586288677
Altındağ,Altindag,39.9636,32.9033,Turkey,TR,TUR,1792907387
Talā,Tala,30.6801,30.9438,Egypt,EG,EGY,1818590732
Stockton,Stockton,37.9765,-121.3109,United States,US,USA,1840021517
Ţalkhā,Talkha,31.0547,31.3756,Egypt,EG,EGY,1818821824
Boa Vista,Boa Vista,2.8194,-60.6714,Brazil,BR,BRA,1076621300
Banjul,Banjul,13.4531,-16.5775,"Gambia, The",GM,GMB,1270723713
Jayapura,Jayapura,-2.533,140.717,Indonesia,ID,IDN,1360517692
Toyama,Toyama,36.6959,137.2137,Japan,JP,JPN,1392000560
Sanandaj,Sanandaj,35.3114,46.9961,Iran,IR,IRN,1364178783
Khon Kaen,Khon Kaen,16.4333,102.8333,Thailand,TH,THA,1764003406
Koumassi,Koumassi,5.3,-3.95,Côte d’Ivoire,CI,CIV,1384863297
Betim,Betim,-19.9678,-44.1978,Brazil,BR,BRA,1076953384
Sochi,Sochi,43.5853,39.7203,Russia,RU,RUS,1643009782
Pasto,Pasto,1.2078,-77.2772,Colombia,CO,COL,1170320545
Syracuse,Syracuse,43.0407,-76.1437,United States,US,USA,1840000378
Kisumu,Kisumu,-0.0833,34.7667,Kenya,KE,KEN,1404511920
Maringá,Maringa,-23.4,-51.9167,Brazil,BR,BRA,1076013378
Kocasinan,Kocasinan,38.7333,35.4833,Turkey,TR,TUR,1792559390
Mataram,Mataram,-8.5833,116.1167,Indonesia,ID,IDN,1360021952
Shashemenē,Shashemene,7.2,38.6,Ethiopia,ET,ETH,1231110370
Zaria,Zaria,11.0667,7.7,Nigeria,NG,NGA,1566287704
Kumi,Kumi,36.1195,128.3444,South Korea,KR,KOR,1410638233
Biñan,Binan,14.33,121.08,Philippines,PH,PHL,1608039268
Chattanooga,Chattanooga,35.066,-85.2481,United States,US,USA,1840014569
Bağlar,Baglar,37.9167,40.1833,Turkey,TR,TUR,1792893915
Đà Lạt,Da Lat,11.9417,108.4383,Vietnam,VN,VNM,1704933464
Sham Shui Po,Sham Shui Po,22.3307,114.1622,Hong Kong,HK,HKG,1344000058
Santa Fe,Santa Fe,-31.6333,-60.7,Argentina,AR,ARG,1032817575
Cumaná,Cumana,10.4564,-64.1675,Venezuela,VE,VEN,1862583279
Barura,Barura,23.375,91.0583,Bangladesh,BD,BGD,1050831924
Yüreğir,Yuregir,36.9981,35.3439,Turkey,TR,TUR,1792234391
Nagasaki,Nagasaki,32.7447,129.8736,Japan,JP,JPN,1392162566
Mardan,Mardan,34.2012,72.0258,Pakistan,PK,PAK,1586001546
Hat Yai,Hat Yai,7.0167,100.4667,Thailand,TH,THA,1764161022
Qazvīn,Qazvin,36.2894,50.0086,Iran,IR,IRN,1364073420
Lancaster,Lancaster,40.042,-76.3012,United States,US,USA,1840003718
Jundiaí,Jundiai,-23.1858,-46.8839,Brazil,BR,BRA,1076998392
Ivanovo,Ivanovo,56.9967,40.9819,Russia,RU,RUS,1643297945
Greenville,Greenville,34.8354,-82.3646,United States,US,USA,1840013501
Toyonaka,Toyonaka,34.7833,135.4667,Japan,JP,JPN,1392003256
Bogra,Bogra,24.85,89.3667,Bangladesh,BD,BGD,1050833664
Öskemen,Oskemen,49.9833,82.6167,Kazakhstan,KZ,KAZ,1398371414
Gifu,Gifu,35.4232,136.7608,Japan,JP,JPN,1392097787
Maungdaw,Maungdaw,20.8167,92.3667,Burma,MM,MMR,1104000431
Durham,Durham,35.9792,-78.9022,United States,US,USA,1840013364
Bryansk,Bryansk,53.2333,34.3667,Russia,RU,RUS,1643208827
Dera Ghazi Khan,Dera Ghazi Khan,30.0331,70.64,Pakistan,PK,PAK,1586002238
Anápolis,Anapolis,-16.3339,-48.9519,Brazil,BR,BRA,1076208869
Pensacola,Pensacola,30.4413,-87.1911,United States,US,USA,1840015005
Miyazaki,Miyazaki,31.9078,131.4203,Japan,JP,JPN,1392216224
Hirakata,Hirakata,34.8167,135.65,Japan,JP,JPN,1392999987
Sandakan,Sandakan,5.8333,118.1167,Malaysia,MY,MYS,1458405180
Szczecin,Szczecin,53.4325,14.5481,Poland,PL,POL,1616256546
Brno,Brno,49.1925,16.6083,Czechia,CZ,CZE,1203676514
Surgut,Surgut,61.25,73.4333,Russia,RU,RUS,1643007475
Fayetteville,Fayetteville,36.0714,-94.1661,United States,US,USA,1840013368
Betsiboka,Betsiboka,-16.95,46.83,Madagascar,MG,MDG,1450524066
Thiès,Thies,14.7833,-16.9167,Senegal,SN,SEN,1686527948
Arlington,Arlington,32.6998,-97.125,United States,US,USA,1840019422
Al Jahrā’,Al Jahra',29.35,47.6833,Kuwait,KW,KWT,1414182001
Kaunas,Kaunas,54.8972,23.8861,Lithuania,LT,LTU,1440302852
Thanh Hóa,Thanh Hoa,19.8075,105.7764,Vietnam,VN,VNM,1704016079
Diadema,Diadema,-23.6861,-46.6106,Brazil,BR,BRA,1076867279
Lobito,Lobito,-12.3667,13.5333,Angola,AO,AGO,1024128946
Saurimo,Saurimo,-9.65,20.4,Angola,AO,AGO,1024326839
Yola,Yola,9.23,12.46,Nigeria,NG,NGA,1566782065
Tāngāil,Tangail,24.2644,89.9181,Bangladesh,BD,BGD,1050628940
Nha Trang,Nha Trang,12.245,109.1917,Vietnam,VN,VNM,1704497901
Khayelitsha,Khayelitsha,-34.0403,18.6778,South Africa,ZA,ZAF,1710736316
Ad Dīwānīyah,Ad Diwaniyah,31.9892,44.9247,Iraq,IQ,IRQ,1368864006
Nnewi,Nnewi,6.0167,6.9167,Nigeria,NG,NGA,1566097410
San-Pédro,San-Pedro,4.75,-6.6333,Côte d’Ivoire,CI,CIV,1384436547
Gujrat,Gujrat,32.5739,74.0789,Pakistan,PK,PAK,1586006990
Yokosuka,Yokosuka,35.2813,139.6721,Japan,JP,JPN,1392003389
Asyūţ,Asyut,27.1833,31.1667,Egypt,EG,EGY,1818456592
Gwoza,Gwoza,11.0861,13.6914,Nigeria,NG,NGA,1566834535
Sampaloc,Sampaloc,14.6031,121.0022,Philippines,PH,PHL,1608298987
Saki,Saki,8.6667,3.4,Nigeria,NG,NGA,1566404680
Bologna,Bologna,44.4939,11.3428,Italy,IT,ITA,1380202039
Aqtöbe,Aqtobe,50.2836,57.2297,Kazakhstan,KZ,KAZ,1398602716
Cilegon,Cilegon,-6.0027,106.0112,Indonesia,ID,IDN,1360643410
Uvinza,Uvinza,-5.1069,30.3839,Tanzania,TZ,TZA,1834561245
Aurora,Aurora,39.7083,-104.7237,United States,US,USA,1840018794
Carapicuíba,Carapicuiba,-23.5192,-46.8358,Brazil,BR,BRA,1076874103
Ḩafr al Bāţin,Hafr al Batin,28.4342,45.9636,Saudi Arabia,SA,SAU,1682394909
Zanjān,Zanjan,36.6789,48.5056,Iran,IR,IRN,1364312712
Petrolina,Petrolina,-9.3825,-40.5022,Brazil,BR,BRA,1076843988
Oyo,Oyo,7.85,3.933,Nigeria,NG,NGA,1566930579
Taytay,Taytay,14.5692,121.1325,Philippines,PH,PHL,1608530771
Kisenzi,Kisenzi,-4.4094,15.3425,Congo (Kinshasa),CD,COD,1180795720
Manisa,Manisa,38.6144,27.4292,Turkey,TR,TUR,1792804328
Tarlac City,Tarlac City,15.4869,120.59,Philippines,PH,PHL,1608237027
Okazaki,Okazaki,34.9543,137.1744,Japan,JP,JPN,1392862345
Ceel Baraf,Ceel Baraf,3.2073,45.7587,Somalia,SO,SOM,1706959191
Ilesa,Ilesa,7.6167,4.7167,Nigeria,NG,NGA,1566937414
Savar,Savar,23.85,90.26,Bangladesh,BD,BGD,1050038410
Nuevo Laredo,Nuevo Laredo,27.4861,-99.5069,Mexico,MX,MEX,1484597234
Bawshar,Bawshar,23.5333,58.3833,Oman,OM,OMN,1512506161
Christchurch,Christchurch,-43.531,172.6365,New Zealand,NZ,NZL,1554377228
Gusau,Gusau,12.15,6.6667,Nigeria,NG,NGA,1566383682
Palu,Palu,-0.895,119.8594,Indonesia,ID,IDN,1360518272
Canberra,Canberra,-35.2931,149.1269,Australia,AU,AUS,1036142029
Minamisuita,Minamisuita,34.7594,135.5169,Japan,JP,JPN,1392948850
Tétouan,Tetouan,35.5667,-5.3667,Morocco,MA,MAR,1504709141
Malabon,Malabon,14.66,120.96,Philippines,PH,PHL,1608045841
Neiva,Neiva,2.9345,-75.2809,Colombia,CO,COL,1170159963
Novi Sad,Novi Sad,45.2542,19.8425,Serbia,RS,SRB,1688169087
Huancayo,Huancayo,-12.0667,-75.2167,Peru,PE,PER,1604249985
Celaya,Celaya,20.5222,-100.8122,Mexico,MX,MEX,1484979555
Ichinomiya,Ichinomiya,35.3039,136.8031,Japan,JP,JPN,1392379530
Caruaru,Caruaru,-8.2828,-35.9758,Brazil,BR,BRA,1076397475
Sintra,Sintra,38.7992,-9.3883,Portugal,PT,PRT,1620848791
Hatay,Hatay,36.2025,36.1606,Turkey,TR,TUR,1792115763
Iquitos,Iquitos,-3.75,-73.25,Peru,PE,PER,1604493809
Cainta,Cainta,14.57,121.12,Philippines,PH,PHL,1608314665
Mamou,Mamou,10.3833,-12.0833,Guinea,GN,GIN,1324990909
Manukau City,Manukau City,-37,174.885,New Zealand,NZ,NZL,1554797148
Itaquaquecetuba,Itaquaquecetuba,-23.4864,-46.3486,Brazil,BR,BRA,1076942224
Cantonment,Cantonment,31.5167,74.3833,Pakistan,PK,PAK,1586338974
Gaziantep,Gaziantep,37.0628,37.3792,Turkey,TR,TUR,1792911843
Bhawana,Bhawana,31.5661,72.6461,Pakistan,PK,PAK,1586746564
Khorramābād,Khorramabad,33.4875,48.3561,Iran,IR,IRN,1364548806
Lipa City,Lipa City,13.9411,121.1622,Philippines,PH,PHL,1608615113
Butuan,Butuan,8.948,125.543,Philippines,PH,PHL,1608000722
Dikirnis,Dikirnis,31.0883,31.5969,Egypt,EG,EGY,1818065059
Stoke-on-Trent,Stoke-on-Trent,53,-2.1833,United Kingdom,GB,GBR,1826799578
Takasaki,Takasaki,36.3219,139.0033,Japan,JP,JPN,1392000529
Malakwal,Malakwal,32.5531,73.2067,Pakistan,PK,PAK,1586718612
Toyohashi,Toyohashi,34.7692,137.3915,Japan,JP,JPN,1392482960
Chitungwiza,Chitungwiza,-17.9939,31.0481,Zimbabwe,ZW,ZWE,1716688236
Gebze,Gebze,40.8,29.4333,Turkey,TR,TUR,1792650082
Cibinong,Cibinong,-6.485,106.842,Indonesia,ID,IDN,1360730847
Az Zubayr,Az Zubayr,30.3833,47.7,Iraq,IQ,IRQ,1368147923
Oxnard,Oxnard,34.1964,-119.1815,United States,US,USA,1840020474
Vinnytsia,Vinnytsia,49.2333,28.4833,Ukraine,UA,UKR,1804658571
Indio,Indio,33.7346,-116.2346,United States,US,USA,1840019304
Bharatpur,Bharatpur,27.6833,84.4333,Nepal,NP,NPL,1524780273
Petare,Petare,10.4833,-66.8167,Venezuela,VE,VEN,1862595613
Nagano,Nagano,36.6486,138.1947,Japan,JP,JPN,1392603439
Keelung,Keelung,25.1333,121.7333,Taiwan,TW,TWN,1158820647
Bauru,Bauru,-22.315,-49.0608,Brazil,BR,BRA,1076905338
La Florida,La Florida,-33.5333,-70.5833,Chile,CL,CHL,1152939649
Nicolás Romero,Nicolas Romero,19.5833,-99.3667,Mexico,MX,MEX,1484589606
Baguio City,Baguio City,16.4119,120.5933,Philippines,PH,PHL,1608164766
Scranton,Scranton,41.4044,-75.6649,United States,US,USA,1840003389
Bochum,Bochum,51.4819,7.2158,Germany,DE,DEU,1276227288
Sivas,Sivas,39.75,37.0167,Turkey,TR,TUR,1792938326
Qardho,Qardho,9.5,49.0833,Somalia,SO,SOM,1706405003
Rio Branco,Rio Branco,-9.9747,-67.81,Brazil,BR,BRA,1076391263
Tecámac,Tecamac,19.7131,-98.9683,Mexico,MX,MEX,1484363321
Alanya,Alanya,36.55,32,Turkey,TR,TUR,1792233416
Mandaue City,Mandaue City,10.33,123.93,Philippines,PH,PHL,1608794590
Victorville,Victorville,34.5277,-117.3536,United States,US,USA,1840021731
Kocaeli,Kocaeli,40.7625,29.9175,Turkey,TR,TUR,1792965114
Warri,Warri,5.5167,5.75,Nigeria,NG,NGA,1566325734
Victoria,Victoria,48.4283,-123.3647,Canada,CA,CAN,1124147219
Iligan,Iligan,8.23,124.25,Philippines,PH,PHL,1608000268
K’ebrī Dehar,K'ebri Dehar,6.7333,44.2667,Ethiopia,ET,ETH,1231393469
Coventry,Coventry,52.4081,-1.5106,United Kingdom,GB,GBR,1826979198
Kayapınar,Kayapinar,37.95,40.1667,Turkey,TR,TUR,1792910994
Trenton,Trenton,40.2237,-74.7641,United States,US,USA,1840001383
Cuenca,Cuenca,-2.8974,-79.0045,Ecuador,EC,ECU,1218041020
Blumenau,Blumenau,-26.9333,-49.05,Brazil,BR,BRA,1076618665
Florence,Florence,43.7714,11.2542,Italy,IT,ITA,1380726561
Buurhakaba,Buurhakaba,2.7833,44.0833,Somalia,SO,SOM,1706176225
Bengkulu,Bengkulu,-3.7956,102.2592,Indonesia,ID,IDN,1360191448
Malmö,Malmo,55.6058,13.0358,Sweden,SE,SWE,1752705818
Pétion-Ville,Petion-Ville,18.5128,-72.2864,Haiti,HT,HTI,1332051873
Utrecht,Utrecht,52.0908,5.1217,Netherlands,NL,NLD,1528871692
Umuahia,Umuahia,5.5333,7.4833,Nigeria,NG,NGA,1566217980
Vitsyebsk,Vitsyebsk,55.1917,30.2056,Belarus,BY,BLR,1112480679
Palmira,Palmira,3.5833,-76.25,Colombia,CO,COL,1170969619
Wuppertal,Wuppertal,51.2667,7.1833,Germany,DE,DEU,1276004611
Hrodna,Hrodna,53.6667,23.8333,Belarus,BY,BLR,1112187197
Ash Shuhadā’,Ash Shuhada',30.6039,30.9021,Egypt,EG,EGY,1818906012
Ponta Grossa,Ponta Grossa,-25.0994,-50.1583,Brazil,BR,BRA,1076716439
Taraz,Taraz,42.9,71.3667,Kazakhstan,KZ,KAZ,1398626276
Cubal,Cubal,-13.0333,14.25,Angola,AO,AGO,1024580158
Luena,Luena,-11.7918,19.9062,Angola,AO,AGO,1024283760
Konak,Konak,38.4189,27.1285,Turkey,TR,TUR,1792668647
Minatitlán,Minatitlan,17.9833,-94.55,Mexico,MX,MEX,1484735713
Caucaia,Caucaia,-3.7167,-38.65,Brazil,BR,BRA,1076870058
Cuito,Cuito,-12.3833,16.9333,Angola,AO,AGO,1024939858
Cabuyao,Cabuyao,14.275,121.125,Philippines,PH,PHL,1608604441
Gedaref,Gedaref,14.0333,35.3833,Sudan,SD,SDN,1729215057
San Fernando,San Fernando,15.03,120.68,Philippines,PH,PHL,1608862124
Kawagoe,Kawagoe,35.9251,139.4858,Japan,JP,JPN,1392825080
Modesto,Modesto,37.6375,-121.0028,United States,US,USA,1840020287
Nizhniy Tagil,Nizhniy Tagil,57.9167,59.9667,Russia,RU,RUS,1643992310
Pokhara,Pokhara,28.2083,83.9889,Nepal,NP,NPL,1524416084
Villahermosa,Villahermosa,17.9892,-92.9281,Mexico,MX,MEX,1484460894
Van,Van,38.4942,43.38,Turkey,TR,TUR,1792940471
Mahilyow,Mahilyow,53.9167,30.35,Belarus,BY,BLR,1112518993
Wakayama,Wakayama,34.2333,135.1667,Japan,JP,JPN,1392907296
Osh,Osh,40.53,72.8,Kyrgyzstan,KG,KGZ,1417797596
Kita-ku,Kita-ku,35.75,139.7333,Japan,JP,JPN,1392003263
Gimpo,Gimpo,37.7,126.6,South Korea,KR,KOR,1410797548
Corrientes,Corrientes,-27.4833,-58.8167,Argentina,AR,ARG,1032173097
Franca,Franca,-20.5389,-47.4008,Brazil,BR,BRA,1076740256
Thari Mir Wah,Thari Mir Wah,27.0683,68.6023,Pakistan,PK,PAK,1586971248
Nara,Nara,34.6844,135.805,Japan,JP,JPN,1392520831
Vladimir,Vladimir,56.1286,40.4058,Russia,RU,RUS,1643712167
Nam Định,Nam Dinh,20.42,106.1683,Vietnam,VN,VNM,1704906277
Oruro,Oruro,-17.9667,-67.1167,Bolivia,BO,BOL,1068626742
Cabimas,Cabimas,10.4,-71.45,Venezuela,VE,VEN,1862398719
Arkhangelsk,Arkhangelsk,64.5333,40.5333,Russia,RU,RUS,1643797198
Batangas,Batangas,13.83,121,Philippines,PH,PHL,1608417616
Ibb,Ibb,13.9667,44.1667,Yemen,YE,YEM,1887321491
Sarai Alamgir,Sarai Alamgir,32.9,73.75,Pakistan,PK,PAK,1586338206
Semey,Semey,50.4333,80.2667,Kazakhstan,KZ,KAZ,1398405657
Holguín,Holguin,20.8869,-76.2592,Cuba,CU,CUB,1192920574
Tungi,Tungi,23.9,90.41,Bangladesh,BD,BGD,1050143008
Sawrān,Sawran,36.6606,44.5508,Iraq,IQ,IRQ,1368321779
Chita,Chita,52.05,113.4667,Russia,RU,RUS,1643036673
Olinda,Olinda,-8,-34.8833,Brazil,BR,BRA,1076784718
Praia Grande,Praia Grande,-24.0061,-46.4028,Brazil,BR,BRA,1076548222
Huntsville,Huntsville,34.6981,-86.6412,United States,US,USA,1840005061
Shinjuku,Shinjuku,35.7014,139.7097,Japan,JP,JPN,1392536374
Alicante,Alicante,38.3453,-0.4831,Spain,ES,ESP,1724923163
Cariacica,Cariacica,-20.2639,-40.42,Brazil,BR,BRA,1076479479
Varna,Varna,43.2167,27.9167,Bulgaria,BG,BGR,1100789115
Honolulu,Honolulu,21.3294,-157.846,United States,US,USA,1840013305
Antofagasta,Antofagasta,-23.65,-70.4,Chile,CL,CHL,1152734289
Ambon,Ambon,-3.7,128.1667,Indonesia,ID,IDN,1360756802
Nice,Nice,43.7034,7.2663,France,FR,FRA,1250774553
Cascavel,Cascavel,-24.9556,-53.4553,Brazil,BR,BRA,1076509946
Pamukkale,Pamukkale,37.9167,29.1167,Turkey,TR,TUR,1792749284
Canoas,Canoas,-29.92,-51.18,Brazil,BR,BRA,1076009922
Takatsuki,Takatsuki,34.8461,135.6175,Japan,JP,JPN,1392003061
António Enes,Antonio Enes,-16.2333,39.9167,Mozambique,MZ,MOZ,1508591443
Greensboro,Greensboro,36.0956,-79.8271,United States,US,USA,1840013356
Anaheim,Anaheim,33.839,-117.8574,United States,US,USA,1840019322
Plovdiv,Plovdiv,42.15,24.75,Bulgaria,BG,BGR,1100436706
Central Coast,Central Coast,-33.3,151.2,Australia,AU,AUS,1036067845
Karşıyaka,Karsiyaka,38.4594,27.1153,Turkey,TR,TUR,1792660772
Gwagwalada,Gwagwalada,8.9392,7.0758,Nigeria,NG,NGA,1566419265
Wad Medani,Wad Medani,14.4,33.5167,Sudan,SD,SDN,1729581572
Kūstī,Kusti,13.1667,32.6667,Sudan,SD,SDN,1729229371
Belfast,Belfast,54.5964,-5.93,United Kingdom,GB,GBR,1826325087
Nakano,Nakano,35.7074,139.6638,Japan,JP,JPN,1392891845
Ōtsu,Otsu,35.0167,135.85,Japan,JP,JPN,1392164106
Maseru,Maseru,-29.31,27.48,Lesotho,LS,LSO,1426977668
Makiivka,Makiivka,48.0556,37.9611,Ukraine,UA,UKR,1804926154
Pavlodar,Pavlodar,52.3,76.95,Kazakhstan,KZ,KAZ,1398790087
Chon Buri,Chon Buri,13.3611,100.985,Thailand,TH,THA,1764202077
Naga City,Naga City,13.6244,123.1864,Philippines,PH,PHL,1608775993
Sarıyer,Sariyer,41.1669,29.0572,Turkey,TR,TUR,1792425356
Brest,Brest,52.1347,23.6569,Belarus,BY,BLR,1112896927
Meram,Meram,37.8364,32.4383,Turkey,TR,TUR,1792895883
Gómez Palacio,Gomez Palacio,25.5611,-103.4983,Mexico,MX,MEX,1484092318
Paulista,Paulista,-7.9408,-34.8728,Brazil,BR,BRA,1076183876
Koshigaya,Koshigaya,35.8911,139.7909,Japan,JP,JPN,1392606124
Vũng Tàu,Vung Tau,10.3833,107.1167,Vietnam,VN,VNM,1704581438
Jeonju,Jeonju,35.8167,127.15,South Korea,KR,KOR,1410494847
Tokorozawa,Tokorozawa,35.7996,139.4686,Japan,JP,JPN,1392340764
Sumqayıt,Sumqayit,40.5897,49.6686,Azerbaijan,AZ,AZE,1031630283
Vitória da Conquista,Vitoria da Conquista,-14.8658,-40.8389,Brazil,BR,BRA,1076812020
Simferopol,Simferopol,44.9519,34.1022,Ukraine,UA,UKR,1804665958
Buôn Ma Thuột,Buon Ma Thuot,12.6667,108.05,Vietnam,VN,VNM,1704542086
Serekunda,Serekunda,13.4333,-16.6667,"Gambia, The",GM,GMB,1270640044
Islip,Islip,40.7385,-73.1888,United States,US,USA,1840058203
Cuernavaca,Cuernavaca,18.9186,-99.2342,Mexico,MX,MEX,1484926471
Markham,Markham,43.8767,-79.2633,Canada,CA,CAN,1124272698
Bielefeld,Bielefeld,52.0211,8.5347,Germany,DE,DEU,1276112885
Uberaba,Uberaba,-19.7478,-47.9319,Brazil,BR,BRA,1076230331
Jitpur,Jitpur,27.6666,85.3333,Nepal,NP,NPL,1524593184
Bydgoszcz,Bydgoszcz,53.1219,18.0003,Poland,PL,POL,1616454014
Chinju,Chinju,35.2,128.0833,South Korea,KR,KOR,1410560599
Corpus Christi,Corpus Christi,27.7254,-97.3767,United States,US,USA,1840019718
Fort Wayne,Fort Wayne,41.0888,-85.1436,United States,US,USA,1840008261
Reading,Reading,51.4542,-0.9731,United Kingdom,GB,GBR,1826869043
Randburg,Randburg,-26.0936,28.0064,South Africa,ZA,ZAF,1710279034
Matadi,Matadi,-5.8167,13.4833,Congo (Kinshasa),CD,COD,1180529604
Bonn,Bonn,50.7333,7.1,Germany,DE,DEU,1276807850
Iwaki,Iwaki,37.0505,140.8877,Japan,JP,JPN,1392158088
Oshawa,Oshawa,43.9,-78.85,Canada,CA,CAN,1124541904
Shah Latif Town,Shah Latif Town,24.8806,67.1625,Pakistan,PK,PAK,1586521586
Fort Collins,Fort Collins,40.5477,-105.0656,United States,US,USA,1840020151
Jackson,Jackson,32.3157,-90.2125,United States,US,USA,1840014895
Santo Domingo de los Colorados,Santo Domingo de los Colorados,-0.2542,-79.1719,Ecuador,EC,ECU,1218148017
Uruapan,Uruapan,19.4208,-102.0628,Mexico,MX,MEX,1484051478
Lublin,Lublin,51.25,22.5667,Poland,PL,POL,1616953501
Tampere,Tampere,61.4981,23.76,Finland,FI,FIN,1246964318
Belgorod,Belgorod,50.6,36.6,Russia,RU,RUS,1643407900
Viña del Mar,Vina del Mar,-33.0244,-71.5517,Chile,CL,CHL,1152898644
Tepic,Tepic,21.5083,-104.8931,Mexico,MX,MEX,1484433877
Khipro,Khipro,25.823,69.377,Pakistan,PK,PAK,1586003885
Asan,Asan,36.7833,126.9833,South Korea,KR,KOR,1410521090
Chak Jhumra,Chak Jhumra,31.5667,73.1833,Pakistan,PK,PAK,1586091428
Myrtle Beach,Myrtle Beach,33.7094,-78.8844,United States,US,USA,1840014717
Soledad de Graciano Sánchez,Soledad de Graciano Sanchez,22.1833,-100.9333,Mexico,MX,MEX,1484610487
Şalālah,Salalah,17.0197,54.0897,Oman,OM,OMN,1512995148
Santarém,Santarem,-2.43,-54.72,Brazil,BR,BRA,1076256494
Yanbu,Yanbu,24.0883,38.0582,Saudi Arabia,SA,SAU,1682000044
Maebashi,Maebashi,36.3895,139.0634,Japan,JP,JPN,1392333295
Kaluga,Kaluga,54.55,36.2833,Russia,RU,RUS,1643161747
Dumai,Dumai,1.6667,101.45,Indonesia,ID,IDN,1360153292
Beylikdüzü,Beylikduzu,41.0011,28.6419,Turkey,TR,TUR,1792504666
Gəncə,Ganca,40.6828,46.3606,Azerbaijan,AZ,AZE,1031197327
Asahikawa,Asahikawa,43.7667,142.3667,Japan,JP,JPN,1392380358
Kendari,Kendari,-3.9907,122.5086,Indonesia,ID,IDN,1360992102
Wŏnju,Wonju,37.3417,127.9208,South Korea,KR,KOR,1410782685
Birkat as Sab‘,Birkat as Sab`,30.6338,31.0848,Egypt,EG,EGY,1818672478
Lafia,Lafia,8.4917,8.5167,Nigeria,NG,NGA,1566042542
Dahūk,Dahuk,36.8667,43,Iraq,IQ,IRQ,1368137126
Finglas,Finglas,53.4597,-6.2181,Ireland,IE,IRL,1372023005
Thái Nguyên,Thai Nguyen,21.6,105.85,Vietnam,VN,VNM,1704613715
Nicosia,Nicosia,35.1725,33.365,Cyprus,CY,CYP,1196944155
São Vicente,Sao Vicente,-23.9633,-46.3922,Brazil,BR,BRA,1076857089
Ribeirão das Neves,Ribeirao das Neves,-19.7669,-44.0869,Brazil,BR,BRA,1076482220
Guédiawaye,Guediawaye,14.7833,-17.4,Senegal,SN,SEN,1686908896
Ciudad Obregón,Ciudad Obregon,27.4939,-109.9389,Mexico,MX,MEX,1484887986
São José dos Pinhais,Sao Jose dos Pinhais,-25.535,-49.2058,Brazil,BR,BRA,1076174955
Phatthaya,Phatthaya,12.9357,100.889,Thailand,TH,THA,1764492695
Fayetteville,Fayetteville,35.085,-78.9772,United States,US,USA,1840013490
Debrecen,Debrecen,47.53,21.6392,Hungary,HU,HUN,1348460698
Mirpur Mathelo,Mirpur Mathelo,28.0167,69.5333,Pakistan,PK,PAK,1586000335
Sultanbeyli,Sultanbeyli,40.9683,29.2617,Turkey,TR,TUR,1792744270
Cabanatuan City,Cabanatuan City,15.4908,120.9678,Philippines,PH,PHL,1608247694
Antioch,Antioch,37.9787,-121.796,United States,US,USA,1840018903
Si Racha,Si Racha,13.174,100.93,Thailand,TH,THA,1764003327
Salamanca,Salamanca,20.5703,-101.1972,Mexico,MX,MEX,1484741627
Koriyama,Koriyama,37.4004,140.3597,Japan,JP,JPN,1392003178
Roodepoort,Roodepoort,-26.1625,27.8725,South Africa,ZA,ZAF,1710090212
Volzhskiy,Volzhskiy,48.8056,44.7417,Russia,RU,RUS,1643875527
Pucallpa,Pucallpa,-8.3833,-74.55,Peru,PE,PER,1604478712
San Pedro,San Pedro,14.3583,121.0583,Philippines,PH,PHL,1608848483
Pelotas,Pelotas,-31.7719,-52.3425,Brazil,BR,BRA,1076815692
Kōchi,Kochi,33.5589,133.5314,Japan,JP,JPN,1392086071
Kuching,Kuching,1.5575,110.3439,Malaysia,MY,MYS,1458462262
Cotabato,Cotabato,7.22,124.25,Philippines,PH,PHL,1608753128
Cimanggis,Cimanggis,-6.3645,106.8591,Indonesia,ID,IDN,1360945721
Gonaïves,Gonaives,19.4456,-72.6883,Haiti,HT,HTI,1332384588
Nazrēt,Nazret,8.5414,39.2689,Ethiopia,ET,ETH,1231826873
Kikuyu,Kikuyu,-1.25,36.6667,Kenya,KE,KEN,1404116834
Córdoba,Cordoba,37.8845,-4.7796,Spain,ES,ESP,1724706440
Kluang,Kluang,2.0336,103.3194,Malaysia,MY,MYS,1458692921
Mekele,Mekele,13.4969,39.4769,Ethiopia,ET,ETH,1231468531
Nantes,Nantes,47.2181,-1.5528,France,FR,FRA,1250091495
Vaughan,Vaughan,43.8333,-79.5,Canada,CA,CAN,1124000141
Vitória,Vitoria,-20.2889,-40.3083,Brazil,BR,BRA,1076376829
Lansing,Lansing,42.7142,-84.5601,United States,US,USA,1840003102
Uíge,Uige,-7.6167,15.05,Angola,AO,AGO,1024666275
Camagüey,Camaguey,21.3839,-77.9075,Cuba,CU,CUB,1192667983
Taourirt,Taourirt,34.4169,-2.885,Morocco,MA,MAR,1504648957
San Salvador de Jujuy,San Salvador de Jujuy,-24.1833,-65.3,Argentina,AR,ARG,1032815808
Thủ Dầu Một,Thu Dau Mot,10.9667,106.65,Vietnam,VN,VNM,1704890399
Al Kūt,Al Kut,32.4907,45.8304,Iraq,IQ,IRQ,1368569694
Lexington,Lexington,38.0423,-84.4587,United States,US,USA,1840015211
Sukabumi,Sukabumi,-6.9181,106.9315,Indonesia,ID,IDN,1360447543
Münster,Munster,51.9625,7.6256,Germany,DE,DEU,1276714504
Menongue,Menongue,-14.6556,17.6842,Angola,AO,AGO,1024725650
Mobile,Mobile,30.6782,-88.1162,United States,US,USA,1840006009
Godē,Gode,5.9527,43.5516,Ethiopia,ET,ETH,1231128743
Okene,Okene,7.55,6.2333,Nigeria,NG,NGA,1566909987
Smolensk,Smolensk,54.7828,32.0453,Russia,RU,RUS,1643627051
Guasavito,Guasavito,25.5744,-108.4706,Mexico,MX,MEX,1484662260
Asan,Asan,36.35,126.9167,South Korea,KR,KOR,1410904940
Nukus,Nukus,42.4667,59.6,Uzbekistan,UZ,UZB,1860620079
Tehuacán,Tehuacan,18.4617,-97.3928,Mexico,MX,MEX,1484817336
Coatzacoalcos,Coatzacoalcos,18.15,-94.4333,Mexico,MX,MEX,1484016854
Muhanga,Muhanga,-2.0845,29.7527,Rwanda,RW,RWA,1646187395
Youngstown,Youngstown,41.0993,-80.6463,United States,US,USA,1840003563
Saransk,Saransk,54.1833,45.1833,Russia,RU,RUS,1643003229
Katsina,Katsina,12.9889,7.6008,Nigeria,NG,NGA,1566777297
Puerto Plata,Puerto Plata,19.8,-70.6833,Dominican Republic,DO,DOM,1214279422
Henderson,Henderson,36.0133,-115.0381,United States,US,USA,1840020361
Gwangmyeongni,Gwangmyeongni,37.476,126.866,South Korea,KR,KOR,1410103113
Geita,Geita,-2.8714,32.2294,Tanzania,TZ,TZA,1834469543
Cherepovets,Cherepovets,59.1167,37.9,Russia,RU,RUS,1643937680
Taubaté,Taubate,-23.025,-45.5556,Brazil,BR,BRA,1076146252
An Nhơn,An Nhon,13.917,109.083,Vietnam,VN,VNM,1704548208
Fontibón,Fontibon,4.6786,-74.1411,Colombia,CO,COL,1170780941
Kot Radha Kishan,Kot Radha Kishan,31.1725,74.0997,Pakistan,PK,PAK,1586349856
Barueri,Barueri,-23.5111,-46.8764,Brazil,BR,BRA,1076211114
San Salvador,San Salvador,13.6989,-89.1914,El Salvador,SV,SLV,1222647454
Savannah,Savannah,32.0286,-81.1821,United States,US,USA,1840015830
Naha,Naha,26.2122,127.6792,Japan,JP,JPN,1392583118
Bari,Bari,41.1253,16.8667,Italy,IT,ITA,1380991126
Mannheim,Mannheim,49.4878,8.4661,Germany,DE,DEU,1276150104
Bor,Bor,6.2125,31.5608,South Sudan,SS,SSD,1728186782
Cà Mau,Ca Mau,9.1833,105.15,Vietnam,VN,VNM,1704320474
Saint-Denis,Saint-Denis,-20.8789,55.4481,Reunion,RE,REU,1638024662
San Miguelito,San Miguelito,9.033,-79.5,Panama,PA,PAN,1591394184
Muar,Muar,2.05,102.5667,Malaysia,MY,MYS,1458170112
Kasur,Kasur,31.1167,74.45,Pakistan,PK,PAK,1586858135
Usme,Usme,4.4464,-74.1522,Colombia,CO,COL,1170556074
Poughkeepsie,Poughkeepsie,41.695,-73.9211,United States,US,USA,1840000500
Kingston upon Hull,Kingston upon Hull,53.7444,-0.3325,United Kingdom,GB,GBR,1826028894
Binangonan,Binangonan,14.4514,121.1919,Philippines,PH,PHL,1608102511
Temara,Temara,33.9267,-6.9122,Morocco,MA,MAR,1504016606
Attiecoubé,Attiecoube,5.3333,-4.0333,Côte d’Ivoire,CI,CIV,1384919817
Pasir Gudang,Pasir Gudang,1.5028,103.9356,Malaysia,MY,MYS,1458548800
Vologda,Vologda,59.2167,39.9,Russia,RU,RUS,1643013685
Gorgān,Gorgan,36.8378,54.4414,Iran,IR,IRN,1364802450
Tanza,Tanza,14.3944,120.8531,Philippines,PH,PHL,1608010777
Yakutsk,Yakutsk,62.03,129.73,Russia,RU,RUS,1643163546
Santa Ana,Santa Ana,33.7367,-117.8819,United States,US,USA,1840021964
Guarujá,Guaruja,-23.9936,-46.2564,Brazil,BR,BRA,1076832747
Quy Nhơn,Quy Nhon,13.7667,109.2333,Vietnam,VN,VNM,1704056461
Ḩā’il,Ha'il,27.5167,41.6833,Saudi Arabia,SA,SAU,1682249750
Mitchells Plain,Mitchells Plain,-34.0506,18.6181,South Africa,ZA,ZAF,1710549821
Gwangju,Gwangju,37.3667,127.2833,South Korea,KR,KOR,1410978753
Yokkaichi,Yokkaichi,34.965,136.6244,Japan,JP,JPN,1392198395
Chalco,Chalco,19.2647,-98.8975,Mexico,MX,MEX,1484834149
Shahrīār,Shahriar,35.6722,51.0236,Iran,IR,IRN,1364482289
Shahr-e Qods,Shahr-e Qods,35.7097,51.1119,Iran,IR,IRN,1364272235
Kurgan,Kurgan,55.4667,65.35,Russia,RU,RUS,1643201853
Ciudad del Este,Ciudad del Este,-25.5167,-54.6167,Paraguay,PY,PRY,1600265252
Ann Arbor,Ann Arbor,42.2759,-83.731,United States,US,USA,1840003172
St. Paul,St. Paul,44.9478,-93.1039,United States,US,USA,1840008940
Karlsruhe,Karlsruhe,49.0092,8.404,Germany,DE,DEU,1276923210
Safi,Safi,32.2833,-9.2333,Morocco,MA,MAR,1504000717
Ciudad Benito Juárez,Ciudad Benito Juarez,25.65,-100.0833,Mexico,MX,MEX,1484140727
Karawang,Karawang,-6.3125,107.295,Indonesia,ID,IDN,1360007357
Suzano,Suzano,-23.5428,-46.3108,Brazil,BR,BRA,1076830201
Newark,Newark,40.7245,-74.1725,United States,US,USA,1840002791
Nghi Sơn,Nghi Son,19.417,105.75,Vietnam,VN,VNM,1704908796
Puerto Princesa,Puerto Princesa,9.75,118.75,Philippines,PH,PHL,1608455700
Vladikavkaz,Vladikavkaz,43.04,44.6775,Russia,RU,RUS,1643438348
Windsor,Windsor,42.2833,-83,Canada,CA,CAN,1124261024
Kasugai,Kasugai,35.2475,136.9722,Japan,JP,JPN,1392431449
Ciudad Santa Catarina,Ciudad Santa Catarina,25.6833,-100.45,Mexico,MX,MEX,1484858068
Puerto La Cruz,Puerto La Cruz,10.2,-64.6333,Venezuela,VE,VEN,1862856141
Ciudad Victoria,Ciudad Victoria,23.7389,-99.1431,Mexico,MX,MEX,1484616519
Playa del Carmen,Playa del Carmen,20.6281,-87.0755,Mexico,MX,MEX,1484559458
Yeşilyurt,Yesilyurt,38.2961,38.2489,Turkey,TR,TUR,1792143860
Irvine,Irvine,33.6772,-117.7738,United States,US,USA,1840019325
Kāshān,Kashan,33.9825,51.4325,Iran,IR,IRN,1364006067
Minna,Minna,9.6139,6.5569,Nigeria,NG,NGA,1566285237
Sumbawanga,Sumbawanga,-7.9667,31.6167,Tanzania,TZ,TZA,1834684278
Orël,Orel,52.9686,36.0694,Russia,RU,RUS,1643703818
Akita,Akita,39.72,140.1026,Japan,JP,JPN,1392129688
Kurume,Kurume,33.3192,130.5083,Japan,JP,JPN,1392003184
Az Zaqāzīq,Az Zaqaziq,30.5667,31.5,Egypt,EG,EGY,1818017750
Podolsk,Podolsk,55.4311,37.5456,Russia,RU,RUS,1643693800
Palmas,Palmas,-10.1844,-48.3336,Brazil,BR,BRA,1076052802
Montpellier,Montpellier,43.6119,3.8772,France,FR,FRA,1250819356
Vila Nova de Gaia,Vila Nova de Gaia,41.1333,-8.6167,Portugal,PT,PRT,1620040225
Bahía Blanca,Bahia Blanca,-38.7167,-62.2667,Argentina,AR,ARG,1032795766
Al Waqf,Al Waqf,26.0808,32.4245,Egypt,EG,EGY,1818448534
San Bernardo,San Bernardo,-33.5833,-70.7,Chile,CL,CHL,1152050361
San Juan del Río,San Juan del Rio,20.3833,-99.9833,Mexico,MX,MEX,1484890205
Armenia,Armenia,4.53,-75.68,Colombia,CO,COL,1170398459
Augsburg,Augsburg,48.3689,10.8978,Germany,DE,DEU,1276314100
Popayán,Popayan,2.4542,-76.6092,Colombia,CO,COL,1170764265
Al Qunfudhah,Al Qunfudhah,19.1264,41.0789,Saudi Arabia,SA,SAU,1682434353
Newcastle,Newcastle,54.978,-1.6102,United Kingdom,GB,GBR,1826292220
Āwasa,Awasa,7.05,38.4667,Ethiopia,ET,ETH,1231663122
Oaxaca,Oaxaca,17.0606,-96.7253,Mexico,MX,MEX,1484301467
Binjai,Binjai,3.5986,98.4803,Indonesia,ID,IDN,1360884608
Barr Eliâs,Barr Elias,33.775,35.9,Lebanon,LB,LBN,1422386644
Khairpur Tamewah,Khairpur Tamewah,29.58,72.2328,Pakistan,PK,PAK,1586275896
Sucre,Sucre,-19.0475,-65.26,Bolivia,BO,BOL,1068823873
Al ‘Ajamī,Al `Ajami,31.0959,29.7604,Egypt,EG,EGY,1818001525
Al Maţarīyah,Al Matariyah,31.1833,32.0333,Egypt,EG,EGY,1818621008
Ash Shāmīyah,Ash Shamiyah,31.9636,44.5989,Iraq,IQ,IRQ,1368487355
Oyster Bay,Oyster Bay,40.7846,-73.514,United States,US,USA,1840058379
Ar Raqqah,Ar Raqqah,35.95,39.01,Syria,SY,SYR,1760035911
Chakwal,Chakwal,32.9303,72.8556,Pakistan,PK,PAK,1586412908
Ōakashichō,Oakashicho,34.65,135,Japan,JP,JPN,1392000137
Afyonkarahisar,Afyonkarahisar,38.7578,30.5386,Turkey,TR,TUR,1792855788
Camaçari,Camacari,-12.6978,-38.3239,Brazil,BR,BRA,1076610862
Ciudad General Escobedo,Ciudad General Escobedo,25.7933,-100.1583,Mexico,MX,MEX,1484345554
Catania,Catania,37.5,15.0903,Italy,IT,ITA,1380562508
Jember,Jember,-8.1727,113.6873,Indonesia,ID,IDN,1360316553
Al Mubarraz,Al Mubarraz,25.3833,49.6,Saudi Arabia,SA,SAU,1682484039
Pekalongan,Pekalongan,-6.8833,109.6667,Indonesia,ID,IDN,1360039434
Los Mochis,Los Mochis,25.7835,-108.9937,Mexico,MX,MEX,1484443585
Toshima,Toshima,35.7333,139.7167,Japan,JP,JPN,1392793312
Pachuca,Pachuca,20.1,-98.75,Mexico,MX,MEX,1484575026
Yangsan,Yangsan,35.3333,129.0333,South Korea,KR,KOR,1410795549
Valladolid,Valladolid,41.6528,-4.7236,Spain,ES,ESP,1724133771
Tampico,Tampico,22.2553,-97.8686,Mexico,MX,MEX,1484060031
Espoo,Espoo,60.2056,24.6556,Finland,FI,FIN,1246357316
Malabo,Malabo,3.7456,8.7744,Equatorial Guinea,GQ,GNQ,1226861333
Pilar,Pilar,-34.45,-58.9167,Argentina,AR,ARG,1032712196
Valparaíso,Valparaiso,-33.0461,-71.6197,Chile,CL,CHL,1152337970
Cirebon,Cirebon,-6.7071,108.5574,Indonesia,ID,IDN,1360011375
Tagum,Tagum,7.4478,125.8078,Philippines,PH,PHL,1608755366
Santa Rosa,Santa Rosa,38.4458,-122.7067,United States,US,USA,1840021488
Comilla,Comilla,23.45,91.2,Bangladesh,BD,BGD,1050609330
Battalgazi,Battalgazi,38.4228,38.3656,Turkey,TR,TUR,1792965811
Sorong,Sorong,-0.8667,131.25,Indonesia,ID,IDN,1360018780
Shubrākhīt,Shubrakhit,31.0275,30.7128,Egypt,EG,EGY,1818459935
Floridablanca,Floridablanca,7.2167,-73.0667,Colombia,CO,COL,1170331200
Silang,Silang,14.2306,120.975,Philippines,PH,PHL,1608301996
Eloy Alfaro,Eloy Alfaro,-2.1733,-79.8311,Ecuador,EC,ECU,1218127217
Pondokaren,Pondokaren,-6.2811,106.7019,Indonesia,ID,IDN,1360008284
Kafr Şaqr,Kafr Saqr,30.7964,31.6261,Egypt,EG,EGY,1818242505
Vila Teixeira da Silva,Vila Teixeira da Silva,-12.1958,15.8556,Angola,AO,AGO,1024863343
Rangpur,Rangpur,25.75,89.2444,Bangladesh,BD,BGD,1050667437
Białystok,Bialystok,53.1353,23.1456,Poland,PL,POL,1616443575
Canton,Canton,40.8078,-81.3676,United States,US,USA,1840000963
Asheville,Asheville,35.5707,-82.5537,United States,US,USA,1840013411
Flint,Flint,43.0236,-83.6921,United States,US,USA,1840002949
Vigo,Vigo,42.2314,-8.7124,Spain,ES,ESP,1724045676
Coacalco,Coacalco,19.6333,-99.0931,Mexico,MX,MEX,1484929782
Bradford,Bradford,53.8,-1.75,United Kingdom,GB,GBR,1826687116
Mabalacat,Mabalacat,15.22,120.58,Philippines,PH,PHL,1608402560
Winter Haven,Winter Haven,28.0118,-81.7014,United States,US,USA,1840015970
Graz,Graz,47.0708,15.4386,Austria,AT,AUT,1040184559
Resistencia,Resistencia,-27.4514,-58.9867,Argentina,AR,ARG,1032720891
Groznyy,Groznyy,43.3125,45.6986,Russia,RU,RUS,1643049853
Chimbote,Chimbote,-9.0745,-78.5936,Peru,PE,PER,1604199858
Strasbourg,Strasbourg,48.5833,7.7458,France,FR,FRA,1250789140
Bergen,Bergen,60.3894,5.33,Norway,NO,NOR,1578465701
Gatineau,Gatineau,45.4833,-75.65,Canada,CA,CAN,1124722129
Tegal,Tegal,-6.8675,109.1375,Indonesia,ID,IDN,1360035814
Anchorage,Anchorage,61.1508,-149.1091,United States,US,USA,1840023385
Batna,Batna,35.55,6.1667,Algeria,DZ,DZA,1012093229
Aarhus,Aarhus,56.1572,10.2107,Denmark,DK,DNK,1208841031
Morioka,Morioka,39.7021,141.1545,Japan,JP,JPN,1392981957
Lincoln,Lincoln,40.8099,-96.6784,United States,US,USA,1840009357
Santa Maria,Santa Maria,14.82,120.96,Philippines,PH,PHL,1608186208
Tambov,Tambov,52.7231,41.4539,Russia,RU,RUS,1643802687
Güngören,Gungoren,41.0225,28.8717,Turkey,TR,TUR,1792090978
Magway,Magway,20.15,94.95,Burma,MM,MMR,1104246517
Farg‘ona,Farg`ona,40.3864,71.7864,Uzbekistan,UZ,UZB,1860479627
Concord,Concord,35.3933,-80.6369,United States,US,USA,1840014559
Sétif,Setif,36.19,5.41,Algeria,DZ,DZA,1012981116
Meguro,Meguro,35.6333,139.6833,Japan,JP,JPN,1392876044
Machala,Machala,-3.2667,-79.9667,Ecuador,EC,ECU,1218378191
San Lorenzo,San Lorenzo,-25.34,-57.52,Paraguay,PY,PRY,1600667303
Jersey City,Jersey City,40.7184,-74.0686,United States,US,USA,1840003600
Punto Fijo,Punto Fijo,11.7167,-70.1833,Venezuela,VE,VEN,1862535644
Várzea Grande,Varzea Grande,-15.65,-56.1333,Brazil,BR,BRA,1076359879
Pathein,Pathein,16.7842,94.7333,Burma,MM,MMR,1104832430
Chernihiv,Chernihiv,51.4939,31.2947,Ukraine,UA,UKR,1804565996
Sincelejo,Sincelejo,9.295,-75.3961,Colombia,CO,COL,1170364198
Cluj-Napoca,Cluj-Napoca,46.7667,23.5833,Romania,RO,ROU,1642503974
Springfield,Springfield,37.1943,-93.2916,United States,US,USA,1840009904
Sekondi,Sekondi,4.9433,-1.704,Ghana,GH,GHA,1288186231
Tacna,Tacna,-18.0147,-70.2489,Peru,PE,PER,1604388134
Tin Shui Wai,Tin Shui Wai,22.46,114.002,Hong Kong,HK,HKG,1344389641
Juazeiro do Norte,Juazeiro do Norte,-7.2,-39.3333,Brazil,BR,BRA,1076912078
Al Qurnah,Al Qurnah,31.0158,47.4306,Iraq,IQ,IRQ,1368380047
Korhogo,Korhogo,9.4167,-5.6167,Côte d’Ivoire,CI,CIV,1384205840
Katowice,Katowice,50.2625,19.0217,Poland,PL,POL,1616798495
Foz do Iguaçu,Foz do Iguacu,-25.54,-54.5875,Brazil,BR,BRA,1076025805
Bolton,Bolton,53.578,-2.429,United Kingdom,GB,GBR,1826628353
San Pablo,San Pablo,14.07,121.325,Philippines,PH,PHL,1608801564
Huixquilucan,Huixquilucan,19.3611,-99.3508,Mexico,MX,MEX,1484187110
Plano,Plano,33.0502,-96.7486,United States,US,USA,1840020662
Qillīn,Qillin,31.0464,30.8546,Egypt,EG,EGY,1818166178
Croix-des-Bouquets,Croix-des-Bouquets,18.5761,-72.2269,Haiti,HT,HTI,1332000065
San Juan Sacatepéquez,San Juan Sacatepequez,14.7189,-90.6442,Guatemala,GT,GTM,1320451247
Ljubljana,Ljubljana,46.0514,14.5061,Slovenia,SI,SVN,1705917455
Fukushima,Fukushima,37.7608,140.4747,Japan,JP,JPN,1392570027
Bago,Bago,17.3333,96.4833,Burma,MM,MMR,1104027443
Delmas,Delmas,18.55,-72.3,Haiti,HT,HTI,1332257532
Ibaraki,Ibaraki,34.8164,135.5686,Japan,JP,JPN,1392003421
Shreveport,Shreveport,32.4653,-93.7955,United States,US,USA,1840015768
Ostrava,Ostrava,49.8356,18.2925,Czechia,CZ,CZE,1203687206
Poltava,Poltava,49.5894,34.5514,Ukraine,UA,UKR,1804547489
Wiesbaden,Wiesbaden,50.0825,8.24,Germany,DE,DEU,1276652118
Temuco,Temuco,-38.7333,-72.6667,Chile,CL,CHL,1152318955
Ica,Ica,-14.0667,-75.7333,Peru,PE,PER,1604607907
Chuncheon,Chuncheon,37.8667,127.7333,South Korea,KR,KOR,1410231130
Sakarya,Sakarya,40.7833,30.4,Turkey,TR,TUR,1792191587
İnegöl,Inegol,40.0806,29.5097,Turkey,TR,TUR,1792592205
Kaura Namoda,Kaura Namoda,12.6,6.5897,Nigeria,NG,NGA,1566455111
Davenport,Davenport,41.5565,-90.6053,United States,US,USA,1840007081
Malārd,Malard,35.6806,50.9783,Iran,IR,IRN,1364376065
Lubbock,Lubbock,33.5657,-101.8879,United States,US,USA,1840020604
Lakeland,Lakeland,28.0557,-81.9545,United States,US,USA,1840015108
Sterlitamak,Sterlitamak,53.6333,55.95,Russia,RU,RUS,1643812452
Bukhara,Bukhara,39.7667,64.4231,Uzbekistan,UZ,UZB,1860523678
Santa Ana,Santa Ana,13.995,-89.5561,El Salvador,SV,SLV,1222021362
Sumbe,Sumbe,-11.2053,13.8417,Angola,AO,AGO,1024297937
Mingaora,Mingaora,34.7717,72.36,Pakistan,PK,PAK,1586782526
Çorlu,Corlu,41.15,27.8,Turkey,TR,TUR,1792855069
Kherson,Kherson,46.6425,32.625,Ukraine,UA,UKR,1804514036
Lucena,Lucena,13.93,121.62,Philippines,PH,PHL,1608000461
Petrópolis,Petropolis,-22.505,-43.1789,Brazil,BR,BRA,1076352504
Mamuju,Mamuju,-2.6833,118.9,Indonesia,ID,IDN,1360687242
Nizhnevartovsk,Nizhnevartovsk,60.95,76.6,Russia,RU,RUS,1643786132
Long Xuyên,Long Xuyen,10.3736,105.4458,Vietnam,VN,VNM,1704453892
Petrozavodsk,Petrozavodsk,61.7833,34.3333,Russia,RU,RUS,1643319966
Gyeongsan,Gyeongsan,35.8167,128.7333,South Korea,KR,KOR,1410545168
South Bend,South Bend,41.6767,-86.2696,United States,US,USA,1840009241
Pematangsiantar,Pematangsiantar,2.96,99.06,Indonesia,ID,IDN,1360769496
Maastricht,Maastricht,50.85,5.6833,Netherlands,NL,NLD,1528563623
Việt Trì,Viet Tri,21.3,105.4333,Vietnam,VN,VNM,1704332956
